number,name,zipcode,area,location,lat,lng,category,note
1,神戸大学 保健管理センター深江分室,658-0022,東灘区,神戸市東灘区深江南町5-1-1,34.719177,135.289308,学校・園・児童館,対応不可
2,神戸新交通(株) 住吉駅,658-0051,東灘区,神戸市東灘区住吉本町1-2,34.719504,135.262343,公共交通機関,対応不可
3,生活協同組合コープこうべ シーア店,658-0051,東灘区,神戸市東灘区住吉本町1-2-1,34.720035,135.262529,商業施設,対応不可
4,生活協同組合コープこうべ 本部,658-0051,東灘区,神戸市東灘区住吉本町1-3-19,34.720082,135.260883,会社・事業所,対応不可
5,生活協同組合コープこうべ 生活文化センター,658-0081,東灘区,神戸市東灘区田中町5丁目3-20,34.721199,135.267181,体育施設・スポーツクラブ,対応不可
6,コナミスポーツクラブ 本山南,658-0014,東灘区,神戸市東灘区北青木2-10-5,34.720976,135.284062,体育施設・スポーツクラブ,対応不可
7,たかぎ歯科医院,658-0081,東灘区,神戸市東灘区田中町1-11-19,34.725901,135.276882,医療関連施設,対応不可
8,東急スポーツオアシス住吉,658-0051,東灘区,神戸市東灘区住吉本町1-1-2住吉NKビル3F,34.720148,135.263439,体育施設・スポーツクラブ,対応不可
9,東灘区民センター,658-0052,東灘区,神戸市東灘区住吉東町5丁目1-16,34.719203,135.263192,集会場・ホール,対応不可
10,東灘区役所,658-0052,東灘区,神戸市東灘区住吉東町5丁目2-1,34.72012,135.265547,官公庁,24時間利用可
11,神戸市立 東灘図書館,658-0052,東灘区,神戸市東灘区住吉東町2丁目3-40,34.719444,135.266443,公園・文教施設,対応不可
12,神戸市立 東灘体育館,658-0025,東灘区,神戸市東灘区魚崎南町6丁目5-11,34.714821,135.278127,体育施設・スポーツクラブ,対応不可
13,神戸市立 魚崎中学校,658-0025,東灘区,神戸市東灘区魚崎南町1-2-1,34.713565,135.279923,学校・園・児童館,対応不可
14,神戸市立 渦が森小学校,658-0066,東灘区,神戸市東灘区渦森台1-12-1,34.738766,135.250876,学校・園・児童館,対応不可
15,神戸市立 住吉中学校,658-0063,東灘区,神戸市東灘区住吉山手1-11-1,34.725595,135.259048,学校・園・児童館,対応不可
16,神戸市立 福池小学校,658-0015,東灘区,神戸市東灘区本山南町4-4-28,34.721342,135.279532,学校・園・児童館,対応不可
17,神戸市立 本庄中学校,658-0027,東灘区,神戸市東灘区青木4-4-2,34.720049,135.287978,学校・園・児童館,対応不可
18,神戸市立 御影中学校,658-0054,東灘区,神戸市東灘区御影中町5-1-1,34.715768,135.253816,学校・園・児童館,対応不可
19,神戸市立 本山第二小学校,658-0073,東灘区,神戸市東灘区西岡本1-3-1,34.724985,135.270147,学校・園・児童館,対応不可
20,神戸市立 本山中学校,658-0072,東灘区,神戸市東灘区岡本3-3-1,34.725279,135.271352,学校・園・児童館,対応不可
21,神戸市立 本山南中学校,658-0081,東灘区,神戸市東灘区田中町4-12-1,34.723213,135.271277,学校・園・児童館,対応不可
22,神戸市立 友生支援学校住吉分校,658-0052,東灘区,神戸市東灘区住吉東町4-1-58,34.717191,135.265659,学校・園・児童館,対応不可
23,神戸ファッションマート,658-0032,東灘区,神戸市東灘区向洋町中6丁目9番地,34.689297,135.268638,商業施設,24時間利用可
24,(株)兵食 六甲アイランド冷蔵庫,658-0033,東灘区,神戸市東灘区向洋町西2丁目,34.692977,135.256811,会社・事業所,対応不可
25,神戸市立 向洋小学校,658-0032,東灘区,神戸市東灘区向洋町中6,34.687729,135.264483,学校・園・児童館,対応不可
26,神戸市立 向洋中学校,658-0032,東灘区,神戸市東灘区向洋町中2,34.689972,135.274235,学校・園・児童館,対応不可
27,六甲アイランド高校,658-0032,東灘区,神戸市東灘区向洋町中4-4,34.684799,135.271681,学校・園・児童館,対応不可
29,ケイヒン(株)六甲冷蔵流通センター,658-0033,東灘区,神戸市東灘区向洋町西2丁目1,34.691446,135.255647,会社・事業所,対応不可
30,ハイテック神戸訪問介(看)護サービス-1,658-0051,東灘区,神戸市東灘区住吉本町2-4-11,34.719666,135.259492,福祉施設,対応不可
31,阪神御影駅,658-0046,東灘区,神戸市東灘区御影本町4-12-4,34.714844,135.255793,公共交通機関,対応不可
32,株式会社 兵食 東部冷蔵庫,658-0023,東灘区,神戸市東灘区深江浜町10番地,34.710607,135.293275,会社・事業所,対応不可
33,財団法人兵庫県予防医学協会,658-0046,東灘区,神戸市東灘区御影本町6-5-2,34.712488,135.255689,医療関連施設,対応不可
34,山御影ゴルフセンター,658-0065,東灘区,神戸市東灘区御影山手4-12-1,34.725424,135.245931,体育施設・スポーツクラブ,対応不可
35,白鶴酒造株式会社,658-0041,東灘区,神戸市東灘区住吉南町4-5-5,34.710291,135.260942,会社・事業所,対応不可
36,白鶴酒造株式会社 旭蔵工場,658-0041,東灘区,神戸市東灘区住吉南町5-10-12,34.712909,135.259905,会社・事業所,対応不可
37,ハイテック神戸訪問介(看)護サービス-2,658-0054,東灘区,神戸市東灘区御影中町6-4-23,34.718746,135.252848,福祉施設,対応不可
38,エスジーエム・オペレーション株式会社,658-0032,東灘区,神戸市東灘区向洋町中5-13,34.691426,135.26794,会社・事業所,対応不可
39,神戸信用金庫 東灘支店,658-0084,東灘区,神戸市東灘区甲南町2丁目7-10,34.722612,135.275313,商業施設,対応不可
40,(株)ドンク 事務所,658-0081,東灘区,神戸市東灘区田中町3丁目19-14,34.724845,135.272741,会社・事業所,対応不可
41,(株)ドンク 六甲アイランド工場,658-0033,東灘区,神戸市東灘区向洋町西5丁目4,34.69145,135.261657,会社・事業所,対応不可
42,神戸市立東灘小学校,658-0013,東灘区,神戸市東灘区深江北町2丁目4-1,34.72454,135.294792,学校・園・児童館,対応不可
43,神戸市立本庄小学校,658-0027,東灘区,神戸市東灘区青木4丁目4-1,34.720742,135.288724,学校・園・児童館,対応不可
44,神戸市立本山南小学校,658-0015,東灘区,神戸市東灘区本山南町8丁目2-1,34.723343,135.282394,学校・園・児童館,対応不可
45,神戸市立魚崎小学校,658-0083,東灘区,神戸市東灘区魚崎中町4丁目10-8,34.71511,135.271647,学校・園・児童館,対応不可
46,神戸市立本山第一小学校,658-0003,東灘区,神戸市東灘区本山北町3丁目10-1,34.728725,135.279346,学校・園・児童館,対応不可
47,神戸市立本山第三小学校,658-0016,東灘区,神戸市東灘区本山中町1丁目2-35,34.727701,135.286848,学校・園・児童館,対応不可
48,神戸市立住吉小学校,658-0052,東灘区,神戸市東灘区住吉東町4丁目1-31,34.716723,135.26503,学校・園・児童館,対応不可
49,神戸市立御影小学校,658-0045,東灘区,神戸市東灘区御影石町3丁目1-1,34.714528,135.251779,学校・園・児童館,対応不可
50,神戸市立御影北小学校,658-0065,東灘区,神戸市東灘区御影山手1丁目12-1,34.72441,135.249357,学校・園・児童館,対応不可
51,神戸市立六甲アイランド小学校,658-0032,東灘区,神戸市東灘区向洋町中2丁目7,34.688376,135.27406,学校・園・児童館,対応不可
52,播州信用金庫 本山支店,658-0081,東灘区,神戸市東灘区田中町1丁目13-8,34.725427,135.275839,商業施設,対応不可
53,播州信用金庫 東灘支店,658-0016,東灘区,神戸市東灘区本山中町3丁目2-3,34.725383,135.282755,商業施設,対応不可
54,口分田玄瑞診療所,658-0003,東灘区,神戸市東灘区本山北町2丁目6-5,34.72853,135.281073,医療関連施設,対応不可
55,小林クリニック,658-0048,東灘区,神戸市東灘区御影郡家1-30-17,34.720531,135.254076,医療関連施設,対応不可
56,やまぐち内科医院,658-0025,東灘区,神戸市東灘区魚崎南町5丁目13-1,34.710404,135.269839,医療関連施設,対応不可
57,医療法人社団 西尾耳鼻咽喉科,658-0013,東灘区,神戸市東灘区深江北町3丁目4-23,34.724062,135.292534,医療関連施設,対応不可
58,吉田小児科医院,658-0064,東灘区,神戸市東灘区鴨子ケ原3丁目28-33,34.733654,135.248057,医療関連施設,対応不可
59,堀本医院,658-0072,東灘区,神戸市東灘区岡本4丁目4-23,34.725911,135.269868,医療関連施設,対応不可
60,吉田循環器内科,658-0047,東灘区,東灘区御影2-10-31,34.721609,135.252026,医療関連施設,対応不可
61,医療法人社団 山村内科循環器科,658-0046,東灘区,神戸市東灘区御影本町2丁目15-2,34.714073,135.257412,医療関連施設,対応不可
62,モンセーヌ住吉川公園管理組合,658-0026,東灘区,神戸市東灘区魚崎西町2丁目2,34.709541,135.26655,集合住宅,対応不可
63,中島クリニック,658-0072,東灘区,神戸市東灘区岡本1丁目13-7-202,34.728764,135.276357,医療関連施設,対応不可
64,川島クリニック,658-0022,東灘区,神戸市東灘区深江南町1丁目12-13,34.723138,135.29963,医療関連施設,対応不可
65,神戸健康共和会 東神戸病院,658-0051,東灘区,神戸市東灘区住吉本町1丁目24-13,34.722067,135.260255,医療関連施設,対応不可
66,岡本商店街振興組合 コトブキ岡本店,658-0072,東灘区,神戸市東灘区岡本1丁目4-26,34.727508,135.275877,商業施設,対応不可
67,長坂医院,658-0072,東灘区,神戸市東灘区岡本2丁目4-11,34.726492,135.273554,医療関連施設,対応不可
68,医療法人社団 四葉会 瀧口クリニック,658-0027,東灘区,神戸市東灘区青木5丁目2-17,34.717452,135.283312,医療関連施設,対応不可
69,SMBC阪急御影コンサルティングオフィス,658-0047,東灘区,神戸市東灘区御影2-2-1,34.724462,135.253297,会社・事業所,対応不可
70,株式会社 三井住友銀行 甲南支店,658-0084,東灘区,神戸市東灘区甲南町3-9-24,34.721929,135.272955,商業施設,対応不可
71,株式会社 三井住友銀行 六甲アイランド支店,658-0032,東灘区,神戸市東灘区向洋町中6-9,34.689301,135.268635,商業施設,対応不可
72,株式会社 三井住友銀行 岡本支店,658-0072,東灘区,神戸市東灘区岡本1-3-25,34.726874,135.275785,商業施設,対応不可
73,株式会社 三井住友銀行 御影支店,658-0046,東灘区,神戸市東灘区御影本町4-10-4,34.714349,135.25575,商業施設,対応不可
74,株式会社 三井住友銀行 住吉支店,658-0051,東灘区,神戸市東灘区住吉本町1-2-1,34.719898,135.262437,商業施設,対応不可
75,サンシャインワーフ神戸管理事務所,658-0027,東灘区,神戸市東灘区青木1-2-34,34.715101,135.286408,商業施設,対応不可
76,岡野耳鼻咽喉科,658-0048,東灘区,神戸市東灘区御影郡家2丁目16-16,34.72439,135.254408,医療関連施設,対応不可
77,学校法人甲南学園 正門,658-0072,東灘区,神戸市東灘区岡本8丁目9-1,34.728845,135.268692,学校・園・児童館,対応不可
78,学校法人甲南学園 3号館1階医務室,658-0072,東灘区,神戸市東灘区岡本8丁目9-1,34.729725,135.26826,学校・園・児童館,対応不可
79,学校法人甲南学園 5号館3階サイバーライブラリー,658-0072,東灘区,神戸市東灘区岡本8丁目9-1,34.729784,135.269318,学校・園・児童館,対応不可
80,学校法人甲南学園 図書館1階カウンター,658-0072,東灘区,神戸市東灘区岡本8丁目9-1,34.728919,135.267894,学校・園・児童館,対応不可
81,学校法人甲南学園 13号館管理人室,658-0073,東灘区,神戸市東灘区西岡本6丁目1-1,34.730142,135.264689,学校・園・児童館,対応不可
82,学校法人甲南学園 7号館管理人室,658-0072,東灘区,神戸市東灘区岡本字十文字山1200,34.730949,135.264707,学校・園・児童館,対応不可
83,学校法人甲南学園 六アイ体育館医務室,658-0032,東灘区,神戸市東灘区向洋中町8-2,34.68322,135.267812,学校・園・児童館,対応不可
84,学校法人甲南学園 六アイ南グラウンド,658-0032,東灘区,神戸市東灘区向洋町中9-4,34.682146,135.267291,学校・園・児童館,対応不可
85,神戸市建設局水環境センター,658-0025,東灘区,神戸市東灘区魚崎南町2丁目1番23号,34.710584,135.27923,官公庁,対応不可
86,灘中学校灘高等学校,658-0082,東灘区,神戸市東灘区魚崎北町8丁目5-1,34.718512,135.268787,学校・園・児童館,対応不可
87,モロゾフ株式会社,658-0033,東灘区,神戸市東灘区向洋町西5丁目3番地,34.691925,135.261672,会社・事業所,対応不可
88,シンコーケミカル・ターミナル(株),658-0042,東灘区,神戸市東灘区住吉浜町18番地,34.702203,135.266983,会社・事業所,24時間利用可
90,財団法人住吉学園,658-0051,東灘区,神戸市東灘区住吉本町3丁目3-4,34.724763,135.260496,,利用不可
91,社団法人兵庫県自動車整備振興会,658-0024,東灘区,,34.707476,135.280964,神戸市東灘区魚崎浜町33,利用不可
92,日東物流株式会社,658-0033,東灘区,神戸市東灘区向洋町西6-4,34.681313,135.25966,会社・事業所,対応不可
93,神戸ファッションプラザ,658-0032,東灘区,神戸市東灘区向洋町中2-9-1,34.688216,135.27076,商業施設,24時間利用可
94,特別養護老人ホーム 友愛苑,658-0064,東灘区,神戸市東灘区鴨子ヶ原2丁目14-17,34.734231,135.250561,福祉施設,対応不可
95,キコーナ青木店,658-0014,東灘区,神戸市東灘区北青木3丁目5-15,34.717894,135.281231,商業施設,対応不可
96,株式会社 タウンライト(キコーナタウン),658-0044,東灘区,神戸市東灘区御影塚町3丁目4-6,34.70914,135.247274,商業施設,対応不可
97,阪神興業有限会社(深江プラザ),658-0013,東灘区,神戸市東灘区深江北町4丁目7-12,34.723573,135.29132,商業施設,対応不可
98,阪神興業有限会社(阪神会館),658-0046,東灘区,神戸市東灘区御影本町2丁目15-22,34.714316,135.256718,商業施設,対応不可
99,株式会社 ガイア(ガイア深江店),658-0021,東灘区,神戸市東灘区深江本町3丁目8-18,34.722781,135.292439,商業施設,対応不可
100,豊栄興産株式会社(Dino),658-0027,東灘区,神戸市東灘区青木6丁目7-16,34.716896,135.281104,商業施設,対応不可
102,株式会社タツミコーポレーション(ガイア住吉店),658-0053,東灘区,神戸市東灘区住吉宮町4丁目4-1-B1,34.718665,135.261447,商業施設,対応不可
103,新国際観光株式会社(甲南グランド),658-0084,東灘区,神戸市東灘区甲南町3丁目7-11,34.721463,135.273795,商業施設,対応不可
104,株式会社 オオシマ・コーポレーション(WING21),658-0013,東灘区,神戸市東灘区深江北町4丁目10-11,34.723555,135.291492,商業施設,対応不可
105,一商会 有限会社(ハーバー43),658-0027,東灘区,神戸市東灘区青木3丁目6-18,34.715422,135.282091,商業施設,対応不可
106,株式会社NSKホールディングス(ライオンズ),658-0013,東灘区,神戸市東灘区深江北町3丁目9-11,34.724052,135.291802,商業施設,対応不可
107,株式会社NSKホールディングス(ライオンズII),658-0027,東灘区,神戸市東灘区青木6丁目4-17,34.716942,135.281886,商業施設,対応不可
108,株式会社BSエンタープライズ(ニュージャンボ),658-0013,東灘区,神戸市東灘区深江北町4丁目11-34,34.724086,135.291234,商業施設,対応不可
109,ミカドホール,658-0046,東灘区,神戸市東灘区御影本町2丁目18-5,34.714338,135.257734,商業施設,対応不可
110,神戸市環境局東クリーンセンター,658-0024,東灘区,神戸市東灘区魚崎浜町1-7,34.705672,135.275978,官公庁,対応不可
111,国土交通省神戸運輸監理部兵庫陸運部,658-0024,東灘区,神戸市東灘区魚崎浜町34-2,34.706984,135.281606,官公庁,対応不可
112,菊正宗酒造(株) 嘉宝蔵,658-0026,東灘区,神戸市東灘区魚崎西町1丁目8-6,34.708459,135.267185,会社・事業所,対応不可
113,神戸市環境局東灘事業所,658-0026,東灘区,神戸市東灘区魚崎西町3丁目5-3,34.711427,135.266654,官公庁,対応不可
114,ファミール東灘壱番館管理組合,658-0012,東灘区,神戸市東灘区本庄町2丁目5-12,34.726166,135.290754,集合住宅,24時間利用可
115,菊正宗酒造(株) 本社,658-0046,東灘区,神戸市東灘区御影本町1丁目7-15,34.710176,135.258233,会社・事業所,対応不可
116,YKK六甲株式会社,658-0033,東灘区,神戸市東灘区向洋町西4丁目2,34.689625,135.260123,会社・事業所,対応不可
117,有限会社 中尾新聞販売(ASA深江),658-0012,東灘区,神戸市東灘区本庄町2丁目8番39号,34.726712,135.292808,商業施設,対応不可
118,本庄地域福祉センター,658-0012,東灘区,神戸市東灘区本庄町2丁目5-1,34.726143,135.291545,小集会場・公民館・地域福祉センター,対応不可
119,本山地域福祉センター,658-0072,東灘区,神戸市東灘区岡本1丁目7-3,34.72811,135.276818,小集会場・公民館・地域福祉センター,対応不可
120,向洋地域福祉センター,658-0032,東灘区,神戸市東灘区向洋町中6丁目3-2,34.688253,135.264032,小集会場・公民館・地域福祉センター,対応不可
121,渦が森地域福祉センター,658-0066,東灘区,神戸市東灘区渦森台1丁目2番1号,34.738258,135.252195,小集会場・公民館・地域福祉センター,対応不可
122,KiLaLa住吉管理組合,658-0053,東灘区,神戸市東灘区住吉宮町4丁目4-1,34.718603,135.261032,集合住宅,対応不可
123,(株)小松製作所六甲アイランド工場,658-0033,東灘区,神戸市東灘区向洋町西4丁目6,34.689111,135.255583,会社・事業所,対応不可
124,剣菱酒造株式会社 No1,658-0046,東灘区,神戸市東灘区御影本町3丁目12-5,34.710132,135.256731,会社・事業所,対応不可
125,剣菱酒造株式会社 No2,658-0023,東灘区,神戸市東灘区深江浜町53番地,34.710941,135.3027,会社・事業所,対応不可
126,剣菱酒造株式会社 No3,658-0023,東灘区,神戸市東灘区深江浜町53番地,34.710608,135.303043,会社・事業所,対応不可
127,NPO大東ネットワーク事業團,658-0084,東灘区,神戸市東灘区甲南町4丁目6-10,34.720362,135.269661,会社・事業所,利用不可
128,ラ・フル-ル本山管理組合,658-0015,東灘区,神戸市東灘区本山南町5丁目3-1,34.719429,135.277182,集合住宅,対応不可
129,神戸市立田中保育所,658-0081,東灘区,神戸市東灘区田中町4丁目11-22,34.722764,135.270048,学校・園・児童館,対応不可
130,神戸市立魚崎保育所,658-0025,東灘区,神戸市東灘区魚崎南町2丁目11-11,34.712212,135.277026,学校・園・児童館,対応不可
131,神戸市立瀬戸保育所,658-0025,東灘区,神戸市東灘区魚崎南町6丁目5-26,34.715154,135.278413,学校・園・児童館,対応不可
132,エレガーノ甲南,658-0015,東灘区,神戸市東灘区本山南町3丁目3-1,34.721267,135.283023,福祉施設,対応不可
133,神戸市立浜御影保育所,658-0046,東灘区,神戸市東灘区御影本町6丁目5-7,34.712656,135.255384,学校・園・児童館,対応不可
134,神戸市立向洋児童館,658-0032,東灘区,神戸市東灘区向洋町中6丁目3-2,34.688179,135.264029,学校・園・児童館,対応不可
135,神戸市立御影保育所,658-0054,東灘区,神戸市東灘区御影中町4丁目1-8,34.717472,135.254894,学校・園・児童館,対応不可
136,神戸市立渦森台保育所,658-0066,東灘区,神戸市東灘区渦森台1丁目13-1,34.739342,135.251345,学校・園・児童館,対応不可
137,神戸市立本山保育所,658-0072,東灘区,神戸市東灘区岡本1丁目7-6,34.728077,135.276569,学校・園・児童館,対応不可
138,神戸市立住吉公園保育所,658-0053,東灘区,神戸市東灘区住吉宮町3丁目4-23,34.716318,135.261513,学校・園・児童館,対応不可
139,神戸市立東灘本庄保育所,658-0027,東灘区,神戸市東灘区青木4丁目1番32号,34.72024,135.289055,学校・園・児童館,対応不可
140,本山東児童館,658-0011,東灘区,神戸市東灘区森南町2丁目8-25,34.729239,135.290107,学校・園・児童館,対応不可
141,六甲アイランド学童保育コーナー,658-0032,東灘区,神戸市東灘区向洋町中3丁目1ー6,34.686741,135.273279,学校・園・児童館,対応不可
142,ケアハウスゆうあい,658-0064,東灘区,神戸市東灘区鴨子ヶ原2丁目14-19,34.733941,135.250726,福祉施設,対応不可
143,神戸市立住之江児童館,658-0053,東灘区,神戸市東灘区住吉宮町1丁目2-15,34.712818,135.264638,学校・園・児童館,対応不可
144,神戸市立浜御影児童館,658-0046,東灘区,神戸市東灘区御影本町6-5-8,34.712458,135.255349,学校・園・児童館,対応不可
145,神戸市立北青木児童館,658-0014,東灘区,神戸市東灘区北青木4丁目6-31,34.717435,135.278969,学校・園・児童館,対応不可
146,コミュニティ・サポートセンター神戸,658-0052,東灘区,神戸市東灘区住吉東町5丁目2?2,34.719685,135.26479,小集会場・公民館・地域福祉センター,対応不可
147,神戸市立中野保育所,658-0015,東灘区,神戸市東灘区本山南町1丁目3-3,34.723865,135.28844,学校・園・児童館,対応不可
148,福池地域福祉センター,658-0015,東灘区,神戸市東灘区本山南町5丁目4-11,34.720724,135.277371,小集会場・公民館・地域福祉センター,対応不可
149,神戸市立田中児童館,658-0081,東灘区,神戸市東灘区田中町4丁目11-24,34.722642,135.270119,学校・園・児童館,対応不可
150,神戸市立魚崎児童館,658-0083,東灘区,神戸市東灘区魚崎中町4丁目3-16,34.713867,135.271427,学校・園・児童館,対応不可
152,介護付有料老人ホームはぴね神戸魚崎,658-0042,東灘区,神戸市東灘区魚崎南町5丁目5-21,34.707494,135.26997,福祉施設,24時間利用可
153,介護付有料老人ホームはぴね神戸魚崎二番館,658-0025,東灘区,神戸市東灘区魚崎南町8丁目10-7,34.712946,135.271409,福祉施設,24時間利用可
154,日清製粉(株)東灘工場,658-0024,東灘区,神戸市東灘区魚崎浜町14,34.704275,135.279842,会社・事業所,対応不可
155,神戸ベイシェラトンホテル&タワーズ,658-0032,東灘区,神戸市東灘区向洋町中2-13,34.689783,135.27022,宿泊施設,24時間利用可
156,エルヴェール神戸本山アーバンライフ,658-0015,東灘区,神戸市東灘区本山南町3丁目ー6-16,34.721786,135.281143,集合住宅,24時間利用可
157,(株)ダイヤモンドフェリー(ターミナル),658-0031,東灘区,神戸市東灘区向洋町東3丁目1,34.697008,135.282627,公共交通機関,対応不可
158,(株)ダイヤモンドフェリー(さんふらわあ ごーるど),658-0031,東灘区,神戸市東灘区向洋町東3丁目21番 神戸六甲RF-1岸壁,34.69602,135.282555,公共交通機関,対応不可
159,(株)ダイヤモンドフェリー(さんふらわあ ぱーる),658-0031,東灘区,神戸市東灘区向洋町東3丁目21番 神戸六甲RF-1岸壁,34.69602,135.282555,公共交通機関,対応不可
160,阪九フェリー,658-0031,東灘区,神戸市東灘区向洋町東3丁目2-1,34.696681,135.284968,公共交通機関,対応不可
161,阪神高速トール神戸(株) 深江浜営業所,658-0023,東灘区,神戸市東灘区深江浜町57番,34.715036,135.297323,会社・事業所,対応不可
162,住吉山手コモンズ マンション管理組合,658-0063,東灘区,神戸市東灘区住吉山手7丁目2-3,34.733394,135.254835,集合住宅,対応不可
163,神戸市立御影幼稚園,658-0045,東灘区,神戸市東灘区御影石町3丁目13-1,34.715646,135.251519,学校・園・児童館,対応不可
164,神戸市立遊喜幼稚園,658-0053,東灘区,神戸市東灘区住吉宮町1丁目8-8,34.712939,135.263278,学校・園・児童館,対応不可
165,神戸市立東灘のぞみ幼稚園,658-0013,東灘区,神戸市東灘区深江北町3-11-3,34.725348,135.292831,学校・園・児童館,対応不可
166,神戸市立住吉幼稚園,658-0053,東灘区,神戸市東灘区住吉宮町7丁目2-6,34.718538,135.258681,学校・園・児童館,対応不可
167,神戸市立魚崎幼稚園,658-0083,東灘区,神戸市東灘区魚崎中町4丁目10-39,34.715023,135.269829,学校・園・児童館,対応不可
168,本山東地域福祉センター,658-0011,東灘区,神戸市東灘区森南町2丁目8-28,34.729309,135.290275,小集会場・公民館・地域福祉センター,対応不可
169,六甲アイランド地域福祉センター,658-0032,東灘区,神戸市東灘区向洋町中3丁目1-6,34.687738,135.274514,小集会場・公民館・地域福祉センター,対応不可
170,魚崎南地域福祉センター,658-0025,東灘区,神戸市東灘区魚崎南町2丁目9-4,34.71148,135.27702,小集会場・公民館・地域福祉センター,対応不可
172,生活協同組合コープこうべ コープリビング甲南,658-0084,東灘区,神戸市東灘区甲南町2丁目1番20号,34.722224,135.276351,商業施設,対応不可
173,生活協同組合コープこうべ コープ甲南,658-0084,東灘区,神戸市東灘区甲南町3丁目1番18号,34.720642,135.274338,商業施設,対応不可
174,生活協同組合コープこうべ 生産事業部(六甲アイランド食品工場),658-0033,東灘区,神戸市東灘区向洋町西2丁目1,34.691932,135.256764,会社・事業所,24時間利用可
175,生活協同組合コープこうべ 健保会館,658-0052,東灘区,神戸市東灘区住吉東町4丁目6-5,34.718505,135.26405,集会場・ホール,対応不可
176,生活協同組合コープこうべ コープ深江,658-0013,東灘区,神戸市東灘区深江北町3町目9番15号,34.724294,135.291845,商業施設,対応不可
177,阪急電鉄(株) 御影駅,658-0047,東灘区,神戸市東灘区御影2丁目1番1号,34.724667,135.252873,公共交通機関,対応不可
178,阪急電鉄(株) 岡本駅,658-0072,東灘区,神戸市東灘区岡本5丁目1番1号,34.729119,135.276086,公共交通機関,対応不可
179,白鶴酒造株式会社 灘魚崎工場,658-0024,東灘区,神戸市東灘区魚崎浜町13番地,34.704782,135.277802,会社・事業所,対応不可
180,甲南女子大学,658-0001,東灘区,神戸市東灘区森北町6-2-23,34.734614,135.287826,学校・園・児童館,対応不可
181,コープこうべ コープ渦森台,658-0066,東灘区,神戸市東灘区渦森台2丁目14番,34.735791,135.250003,商業施設,対応不可
182,兵庫県東灘警察署,658-0054,東灘区,神戸市東灘区御影中町2丁目3番2号,34.717796,135.25587,官公庁,24時間利用可
183,日通商事株式会社,658-0046,東灘区,神戸市東灘区御影本町3-1-4,34.708225,135.258006,会社・事業所,対応不可
184,(株)J-オイルミルズ 神戸工場,658-0023,東灘区,神戸市東灘区深江浜町49,34.70621,135.301774,会社・事業所,対応不可
185,水道局東部センター,658-0081,東灘区,神戸市東灘区田中町5-3-23,34.721102,135.26668,官公庁,24時間利用可
186,全農サイロ(株)神戸支店,658-0042,東灘区,神戸市東灘区住吉浜町,34.702226,135.265553,会社・事業所,24時間利用可
187,株式会社ダイヘン六甲事務所,658-0033,東灘区,神戸市東灘区向洋町西4丁目1番,34.690815,135.258557,会社・事業所,対応不可
188,株式会社コープエイシス,658-0081,東灘区,神戸市東灘区田中町5-2-1,34.721064,135.267974,会社・事業所,対応不可
189,Konan Clover House,658-0084,東灘区,神戸市東灘区甲南町1丁目3-14,34.723047,135.27687,集合住宅,24時間利用可
190,グランダ御影山手弐番館,658-0065,東灘区,神戸市東灘区御影山手1丁目2-31,34.725297,135.255215,福祉施設,24時間利用可
191,コープこうべ コープミニ深江南,658-0022,東灘区,神戸市東灘区深江南町2丁目12番8号,34.72166,135.297964,商業施設,対応不可
192,コープこうべ コープミニ魚崎,658-0083,東灘区,神戸市東灘区魚崎中町4丁目8-1,34.712859,135.269319,商業施設,対応不可
193,コープこうべ コープミニ住吉台,658-0062,東灘区,神戸市東灘区住吉台3番1号,34.734494,135.257647,商業施設,対応不可
194,コープこうべ コープミニ甲南山手,658-0001,東灘区,神戸市東灘区森北町1丁目6番7号,34.73105,135.291388,商業施設,対応不可
195,コープこうべ コープミニ御影北,658-0047,東灘区,神戸市東灘区御影3丁目8番33号,34.721296,135.247242,商業施設,対応不可
196,コープこうべ 協同購入センター東灘,658-0024,東灘区,神戸市東灘区魚崎浜町1-1,34.704371,135.272449,会社・事業所,対応不可
197,コープこうべ 協同購入センター六甲,658-0043,東灘区,神戸市東灘区御影浜町3番2号,34.706993,135.254894,会社・事業所,対応不可
198,グランダ御影山手,658-0065,東灘区,神戸市東灘区御影山手1丁目2-26,34.725538,135.254677,福祉施設,24時間利用可
199,ザ・本山プレミアム管理組合,658-0084,東灘区,神戸市東灘区甲南町1丁目3-7,34.722685,135.276966,集合住宅,24時間利用可
200,神戸老人ホーム,658-0051,東灘区,神戸市東灘区住吉本町3丁目7-41,34.724112,135.25924,福祉施設,対応不可
201,ティーエムターミナル,658-0043,東灘区,神戸市東灘区御影浜町6番,34.702751,135.257987,会社・事業所,24時間利用可
202,特別養護老人ホーム セ・ラ・ヴィ,658-0053,東灘区,神戸市東灘区住吉宮町3丁目4-17,34.716229,135.261627,福祉施設,24時間利用可
203,神戸スポーツアートCocoro専門学校,658-0032,東灘区,神戸市東灘区向洋町中1丁目15番地,34.690473,135.270938,学校・園・児童館,対応不可
204,神戸市産業振興局中央卸売市場,658-0023,東灘区,神戸市東灘区深江浜町1-1,34.714821,135.296273,会社・事業所,24時間利用可
205,甲南山手保育園,658-0012,東灘区,神戸市東灘区本庄町1丁目10番2号,34.727884,135.294429,学校・園・児童館,対応不可
206,ザ・ガーデンプレイス蘇州園,658-0063,東灘区,神戸市東灘区住吉山手4丁目7-28,34.727381,135.254301,商業施設,対応不可
207,みかげ倶楽部,658-0063,東灘区,神戸市東灘区住吉山手2丁目11-26,34.727127,135.256462,福祉施設,24時間利用可
208,神戸税関六甲アイランド出張所,658-0033,東灘区,神戸市東灘区向洋町西1丁目,34.694516,135.265463,官公庁,対応不可
209,甲南保育園,658-0011,東灘区,神戸市東灘区森南町3丁目1番4号,34.727643,135.289359,学校・園・児童館,対応不可
210,魚崎学童保育コーナー,658-0025,東灘区,神戸市東灘区魚崎南町3丁目17-10,34.712048,135.275252,学校・園・児童館,対応不可
211,本山児童館,658-0003,東灘区,神戸市東灘区本山北町3丁目10番2号,34.728482,135.279491,学校・園・児童館,対応不可
212,本庄児童館,658-0012,東灘区,神戸市東灘区本庄町2丁目5番1号,34.726206,135.291535,学校・園・児童館,対応不可
213,本山南学童保育コーナー,658-0015,東灘区,神戸市東灘区本山南町1丁目1-1,34.7232,135.289299,学校・園・児童館,対応不可
214,リハビリホーム グランダ摂津本山,658-0015,東灘区,神戸市東灘区本山南町5-2-12,34.720402,135.278004,福祉施設,24時間利用可
215,株式会社 神東,658-0024,東灘区,神戸市東灘区魚崎浜町17-6,34.705494,135.277092,会社・事業所,対応不可
216,社会福祉法人 信愛学園 御影のどか保育園,658-0047,東灘区,神戸市東灘区御影3丁目28-1,34.722907,135.245827,学校・園・児童館,対応不可
217,浜御影地域福祉センター,658-0046,東灘区,神戸市東灘区御影本町6-2-14,34.71214,135.255575,小集会場・公民館・地域福祉センター,対応不可
218,社会福祉法人 児童養護施設 信愛学園,658-0047,東灘区,神戸市東灘区御影3丁目28-1,34.722907,135.245827,福祉施設,24時間利用可
219,社会福祉法人 信愛学園 御影乳児院,658-0047,東灘区,神戸市東灘区御影3丁目28,34.722274,135.246151,福祉施設,24時間利用可
220,渦森台児童館,658-0066,東灘区,神戸市東灘区渦森台1丁目2-1,34.738206,135.25233,学校・園・児童館,対応不可
221,本山西地域福祉センター,658-0073,東灘区,神戸市東灘区西岡本4丁目8-12,34.726294,135.264045,小集会場・公民館・地域福祉センター,対応不可
222,御影北児童館,658-0047,東灘区,神戸市東灘区御影2丁目20-10,34.723365,135.250148,学校・園・児童館,対応不可
223,甲南介護老人保健施設,658-0032,東灘区,神戸市東灘区向洋町3丁目2-5,34.68676,135.27149,福祉施設,24時間利用可
224,兵庫県立御影高等学校,658-0045,東灘区,神戸市東灘区御影石町4丁目1-1,34.717049,135.250895,学校・園・児童館,対応不可
225,社会福祉法人 鶯園 特別養護老人ホーム ロングステージKOBE岡本,658-0073,東灘区,神戸市東灘区西岡本2丁目25-4-101,34.724106,135.265037,福祉施設,24時間利用可
226,阪神水道企業団,658-0073,東灘区,神戸市東灘区西岡本3丁目20-1,34.724427,135.263696,会社・事業所,対応不可
227,社会福祉法人 千種会 特別養護老人ホーム おおぎの郷,658-0014,東灘区,神戸市東灘区北青木1丁目1-3,34.721541,135.286427,福祉施設,24時間利用可
228,御影北地域福祉センター,658-0047,東灘区,神戸市東灘区御影2丁目28-13,34.722513,135.250157,小集会場・公民館・地域福祉センター,対応不可
229,特別養護老人ホーム 協同の苑六甲アイランド,658-0032,東灘区,神戸市東灘区向洋町中3丁目1-2,34.68751,135.275115,福祉施設,24時間利用可
230,特別養護老人ホーム 協同の苑六甲アイランド にじの家,658-0032,東灘区,神戸市東灘区向洋町中3丁目2-6,34.687183,135.271521,福祉施設,24時間利用可
231,社会福祉法人 千種会 メディカルケアハウス甲南山手,658-0012,東灘区,神戸市東灘区本庄町2丁目8-36,34.726936,135.292679,福祉施設,24時間利用可
232,社会福祉法人 夢工房 夢保育園,658-0053,東灘区,神戸市東灘区住吉宮町1-2-27,34.71277,135.265082,学校・園・児童館,対応不可
233,社会福祉法人 夢工房 夢保育園遊喜分園,658-0053,東灘区,神戸市東灘区住吉宮町1-8-8,34.713006,135.263499,学校・園・児童館,対応不可
234,社会福祉法人 千種会 特別養護老人ホーム甲南山手,658-0012,東灘区,神戸市東灘区本庄町2丁目10-2,34.727921,135.294101,福祉施設,24時間利用可
235,株式会社 神戸サンソ,658-0025,東灘区,神戸市東灘区魚崎南町3丁目2-2,34.708266,135.274601,会社・事業所,対応不可
236,社会福祉法人 千種会 メディカルグループホーム甲南山手,658-0016,東灘区,神戸市東灘区本山中町1丁目15-7,34.728617,135.287425,福祉施設,24時間利用可
237,サンライフ住吉川,658-0052,東灘区,神戸市東灘区住吉東町1丁目3-17-3,34.715384,135.267329,福祉施設,24時間利用可
238,神戸国際大学,658-0032,東灘区,神戸市東灘区向洋町9丁目1-6,34.680651,135.269286,学校・園・児童館,24時間利用可
239,兵庫県立東灘高等学校,658-0023,東灘区,神戸市東灘区深江浜町50,34.709534,135.300731,学校・園・児童館,対応不可
240,神戸薬科大学,658-0003,東灘区,神戸市東灘区本山北町4丁目19-1,34.732003,135.283636,学校・園・児童館,24時間利用可
241,学校法人甲南学園 甲南小学校,658-0051,東灘区,神戸市東灘区住吉本町1丁目12-1,34.722011,135.264268,学校・園・児童館,対応不可
242,学校法人甲南学園 甲南幼稚園,658-0051,東灘区,神戸市東灘区住吉本町1丁目12-1,34.722643,135.263723,学校・園・児童館,対応不可
243,兵庫県警東灘警察署 田中交番,658-0084,東灘区,神戸市東灘区甲南町2丁目8-8,34.722503,135.274595,官公庁,24時間利用可
244,神戸地方法務局東神戸出張所,658-0021,東灘区,神戸市東灘区深江本町4丁目4-1,34.721444,135.290062,官公庁,対応不可
245,北青木会館,658-0014,東灘区,神戸市東灘区北青木4-6-32,34.717316,135.279034,小集会場・公民館・地域福祉センター,対応不可
246,グランダ甲南山手,658-0013,東灘区,神戸市東灘区深江北町1丁目15-4,34.727351,135.297026,福祉施設,24時間利用可
247,(株)ベネッセスタイルケア メディカルホームグランダ深江南,658-0022,東灘区,神戸市東灘区深江南町2丁目8-25,34.72206,135.299818,福祉施設,24時間利用可
248,御影クラッセ,658-0054,東灘区,神戸市東灘区御影中町3丁目2-1,34.715617,135.254806,商業施設,対応不可
249,本住吉神社,658-0053,東灘区,神戸市東灘区住吉宮町7-1-2,34.71873,135.259912,その他,対応不可
250,頌栄短期大学B棟,658-0063,東灘区,神戸市東灘区住吉山手1丁目18-1,34.727129,135.248729,学校・園・児童館,対応不可
251,頌栄短期大学D棟,658-0064,東灘区,神戸市東灘区鴨子ヶ原3丁目32-20,34.728142,135.248832,学校・園・児童館,対応不可
252,頌栄幼稚園,658-0063,東灘区,神戸市東灘区住吉山手1丁目18-1,34.727005,135.249616,学校・園・児童館,対応不可
253,日本年金機構 東灘年金事務所,658-0053,東灘区,神戸市東灘区住吉宮町1丁目11-17,34.713318,135.265391,官公庁,対応不可
254,神戸市立もとやま園,658-0073,東灘区,神戸市東灘区西岡本4丁目17-1,34.725953,135.262606,福祉施設,対応不可
255,三菱倉庫(株)神戸支店六甲営業所,658-0033,東灘区,神戸市東灘区向洋町西2丁目7,34.695381,135.26312,会社・事業所,24時間利用可
256,本山北町あすの保育園,658-0003,東灘区,神戸市東灘区本山北町3丁目2-28,34.72773,135.280591,学校・園・児童館,対応不可
257,介護老人保健施設 すばる魚崎の郷,658-0026,東灘区,神戸市東灘区魚崎西町2丁目3-19,34.710336,135.266411,福祉施設,24時間利用可
258,学校法人甲南学園 甲南大学三木瀧蔵記念体育館,658-0032,東灘区,神戸市東灘区向洋町中9丁目4,34.682354,135.267766,学校・園・児童館,対応不可
259,神戸レディースフットボールセンター,658-0032,東灘区,神戸市東灘区向洋町中7丁目1-1,34.686055,135.269197,体育施設・スポーツクラブ,対応不可
260,社会福祉法人こすもす ケアハウスこすもぴあ,658-0025,東灘区,神戸市東灘区魚崎南町4丁目13-11,34.711216,135.271827,福祉施設,24時間利用可
261,ABCみかげ保育園,658-0046,東灘区,神戸市東灘区御影本町6-1-15,34.711366,135.255217,学校・園・児童館,対応不可
262,三菱倉庫(株)神戸支店六甲営業所E号倉庫事務所,658-0031,東灘区,神戸市東灘区向洋町東4丁目7番,34.687985,135.280487,会社・事業所,24時間利用可
263,社会福祉法人 神戸福生会 グランドビュー甲南,658-0001,東灘区,神戸市東灘区森北町6丁目1-3,34.735485,135.289258,福祉施設,24時間利用可
264,社会福祉法人 神戸福生会 ケアハウスこうべ甲南,658-0001,東灘区,神戸市東灘区森北町6丁目1-2,34.735727,135.289155,福祉施設,24時間利用可
265,社会福祉法人 神戸福生会 高齢者ケアセンター甲南,658-0001,東灘区,神戸市東灘区森北町6丁目1-1,34.735846,135.288836,福祉施設,24時間利用可
266,甲南女子中高等学校,658-0001,東灘区,神戸市東灘区森北町5丁目6-1,34.734746,135.291433,学校・園・児童館,
267,東神戸センタービル,6580015,東灘区,神戸市東灘区本山南町8丁目6-26,34.724241,135.281759,商業施設,
268,社会福祉法人 鶯園 特別養護老人ホームロングステージ御影,658-0045,東灘区,神戸市東灘区御影石町1-2-18,34.709073,135.25199,福祉施設,24時間利用可
269,神戸市建設局東水環境センター(東部スラッジセンター),6580031,東灘区,神戸市東灘区向洋町東2丁目1-1,34.695064,135.275066,会社・事業所,
270,青木南地域福祉センター,658-0014,東灘区,神戸市東灘区青木2-3-21-909,34.718914,135.28655,小集会場・公民館・地域福祉センター,対応不可
271,ウエストコート4番街団地管理組合,658-0032,東灘区,神戸市東灘区向洋町中5丁目1,34.69086,135.26567,集合住宅,24時間利用可
272,ろっこう医療生活協同組合うはらハウス,658-0082,東灘区,神戸市東灘区魚崎北町6丁目9-18,34.719589,135.274073,集合住宅,24時間利用可
273,深江会館,658-0021,東灘区,神戸市東灘区深江本町3丁目5-7,34.7224,135.292458,小集会場・公民館・地域福祉センター,対応不可
274,深江南地域福祉センター,658-0022,東灘区,神戸市東灘区深江南町3丁目4番24号,34.721931,135.296105,小集会場・公民館・地域福祉センター,対応不可
275,グッドタイムリビング御影,658-0054,東灘区,神戸市東灘区御影中町3丁目2-3,34.716186,135.255231,福祉施設,対応不可
1,学校法人 六甲学院,657-0015,灘区,神戸市灘区篠原伯母野山町2丁目4番1号,34.727989,135.227345,学校・園・児童館,対応不可
2,松蔭中学校・高等学校,657-0805,灘区,神戸市灘区青谷町3-4-47,34.713929,135.210562,学校・園・児童館,対応不可
3,神戸市灘区医師会,657-0831,灘区,神戸市灘区水道筋1-24,34.714474,135.227481,医療関連施設,対応不可
4,(株)神戸製鋼所 灘浜ガーデンバーデン,657-0864,灘区,神戸市灘区新在家南町2丁目25-6,34.706264,135.23974,入浴施設,対応不可
5,神戸大学 保健管理センター,657-0013,灘区,神戸市灘区六甲台町1番1号,34.726346,135.235587,学校・園・児童館,対応不可
6,セントラルウェルネスクラブ六甲道,657-0036,灘区,神戸市灘区桜口町5丁目1-1-111 ウェルブ六甲道5番街1番館,34.712197,135.23889,体育施設・スポーツクラブ,対応不可
7,神戸市建設局 王子動物園,657-0838,灘区,神戸市灘区王子町3丁目,34.709202,135.215072,公園・文教施設,対応不可
8,ダイブサポートセンター ビエント,657-0028,灘区,神戸市灘区森後町1-3-19,34.717362,135.239433,商業施設,対応不可
9,神戸市灘区役所,657-0036,灘区,神戸市灘区桜口町4丁目2番1号,34.712321,135.239662,官公庁,24時間利用可
11,神戸市立王子スポーツセンター,657-0805,灘区,神戸市灘区青谷町1丁目1番1号,34.711386,135.212922,体育施設・スポーツクラブ,対応不可
12,六甲山YMCA,657-0101,灘区,神戸市灘区六甲山町北六甲875,34.75439,135.223307,公園・文教施設,対応不可
14,オテル・ド・摩耶,657-0105,灘区,神戸市灘区摩耶山町2-8,34.737537,135.206253,宿泊施設,24時間利用可
16,神戸市立灘図書館,657-0027,灘区,神戸市灘区永手町4丁目2-1,34.715805,135.238559,公園・文教施設,対応不可
17,神戸市立上野中学校,657-0816,灘区,神戸市灘区国玉通1-1-1,34.719592,135.223732,学校・園・児童館,対応不可
18,神戸市立烏帽子中学校,657-0042,灘区,神戸市灘区烏帽子町1-2-1,34.710754,135.237571,学校・園・児童館,対応不可
19,神戸市立青陽東養護学校,657-0846,灘区,神戸市灘区岩屋北町6-1-1,34.705881,135.217975,学校・園・児童館,対応不可
20,神戸市立鷹匠中学校,657-0025,灘区,神戸市灘区高徳町2-2-19,34.720017,135.244435,学校・園・児童館,対応不可
21,神戸市立長峰中学校,657-0811,灘区,神戸市灘区長峰台2-2-1,34.724521,135.223019,学校・園・児童館,対応不可
22,神戸市立原田中学校,657-0842,灘区,神戸市灘区船寺通2-4-1,34.707794,135.229266,学校・園・児童館,対応不可
23,神戸市立六甲山牧場,657-0101,灘区,神戸市灘区六甲山町中一里山1の1,34.748062,135.209489,公園・文教施設,対応不可
24,社団法人 日本自動車連盟兵庫支部,657-0044,灘区,神戸市灘区鹿ノ下通2丁目4番13,34.709407,135.233221,会社・事業所,対応不可
25,神戸大学 発達科学部(体育館),657-0011,灘区,神戸市灘区鶴甲3丁目11,34.734191,135.234751,学校・園・児童館,対応不可
26,神戸大学 国際文化学部(鶴甲第1キャンパス 門衛所),657-0011,灘区,神戸市灘区鶴甲1丁目2-1,34.73189,135.237417,学校・園・児童館,対応不可
27,神戸大学 総務部人事課(本部棟),657-0013,灘区,神戸市灘区六甲台町1番1号,34.725098,135.234462,学校・園・児童館,対応不可
28,神戸市立六甲道勤労市民センター,657-0038,灘区,神戸市灘区深田町4丁目I-39メイン六甲,34.714472,135.239058,集会場・ホール,対応不可
29,(株)サザンモール六甲,657-0864,灘区,神戸市灘区新在家南町1丁目2-1,34.708913,135.241703,商業施設,対応不可
30,神戸市立自然の家,657-0101,灘区,神戸市灘区六甲山町中一里山1-1,34.743584,135.213517,公園・文教施設,対応不可
31,神戸信用金庫 西灘支店,657-0831,灘区,神戸市灘区水道筋4丁目2-1,34.71277,135.22329,商業施設,対応不可
33,神戸市立灘区民ホール,657-0832,灘区,神戸市灘区岸地通1丁目1-1,34.713542,135.2283,集会場・ホール,対応不可
34,稗田わくわくクラブ,657-0832,灘区,神戸市灘区岸地通4丁目2-1,34.711451,135.22267,体育施設・スポーツクラブ,対応不可
35,阿部医院,657-0024,灘区,神戸市灘区楠丘町5丁目2-16,34.719442,135.240114,医療関連施設,対応不可
36,安藤医院,657-0041,灘区,神戸市灘区琵琶町2丁目3-13,34.711672,135.235899,医療関連施設,対応不可
37,大林医院,657-0033,灘区,神戸市灘区徳井町3丁目3-2,34.715262,135.245964,医療関連施設,対応不可
38,渡辺内科小児科クリニック,657-0024,灘区,神戸市灘区楠丘町2丁目2-24,34.72127,135.243861,医療関連施設,対応不可
39,船曳医院,657-0028,灘区,神戸市灘区森後町3丁目5-41,34.716472,135.237249,医療関連施設,対応不可
40,ろっこう医療生協 六甲道診療所,657-0036,灘区,神戸市灘区桜口町4丁目5-12,34.712939,135.23991,医療関連施設,対応不可
41,本庄医院,657-0836,灘区,神戸市灘区城内通2丁目5-14,34.709036,135.218368,医療関連施設,対応不可
42,神戸大学 発達科学部(A棟),657-0011,灘区,神戸市灘区鶴甲3丁目11,34.733403,135.234736,学校・園・児童館,対応不可
43,神戸大学 教育推進機構(K棟),657-0011,灘区,神戸市灘区鶴甲1丁目2-1,34.730767,135.236788,学校・園・児童館,対応不可
44,神戸大学 六甲台第3学舎,657-0013,灘区,神戸市灘区六甲台町2番1号,34.728547,135.234648,学校・園・児童館,対応不可
45,神戸大学 理学部 B棟,657-0013,灘区,神戸市灘区六甲台町1番1号,34.725067,135.235521,学校・園・児童館,対応不可
46,神戸大学 工学部(工学研究棟 門衛所),657-0013,灘区,神戸市灘区六甲台町1番1号,34.727233,135.237376,学校・園・児童館,対応不可
47,神戸大学 都市安全研究センター,657-0013,灘区,神戸市灘区六甲台町1番1号,34.728139,135.237709,学校・園・児童館,対応不可
48,神戸市立成徳小学校,657-0037,灘区,神戸市灘区備後町1丁目3-1,34.715357,135.242481,学校・園・児童館,対応不可
49,神戸市立高羽小学校,657-0023,灘区,神戸市灘区高羽町3丁目11番11号,34.723062,135.23911,学校・園・児童館,対応不可
50,神戸市立鶴甲小学校,657-0011,灘区,神戸市灘区鶴甲2丁目10番1号,34.733283,135.236773,学校・園・児童館,対応不可
51,神戸市立六甲山小学校,657-0101,灘区,神戸市灘区六甲山町北六甲4512-42,34.757399,135.2325,学校・園・児童館,対応不可
52,神戸市立西郷小学校,657-0043,灘区,神戸市灘区大石東町6丁目2番1号,34.706632,135.233135,学校・園・児童館,対応不可
53,神戸市立六甲小学校,657-0051,灘区,神戸市灘区八幡町4丁目4番1号,34.717422,135.23391,学校・園・児童館,対応不可
54,神戸市立灘小学校,657-0056,灘区,神戸市灘区千旦通1丁目5-1,34.713145,135.232866,学校・園・児童館,対応不可
55,神戸市立西灘小学校,657-0842,灘区,神戸市灘区船寺通3丁目4番1号,34.707564,135.228164,学校・園・児童館,対応不可
56,神戸市立稗田小学校,657-0832,灘区,神戸市灘区岸地通4丁目2-1,34.711132,135.222858,学校・園・児童館,対応不可
57,神戸市立美野丘小学校,657-0812,灘区,神戸市灘区箕岡通1丁目3-17,34.722618,135.221373,学校・園・児童館,対応不可
58,神戸市立摩耶小学校,657-0822,灘区,神戸市灘区畑原通4丁目1番1号,34.715591,135.220955,学校・園・児童館,対応不可
59,神戸市立福住小学校,657-0824,灘区,神戸市灘区福住通7丁目1番1号,34.71283,135.218787,学校・園・児童館,対応不可
60,播州信用金庫六甲道支店,657-0035,灘区,神戸市灘区友田町2丁目7番22号,34.71293,135.242725,商業施設,対応不可
61,播州信用金庫 灘支店,657-0831,灘区,神戸市灘区水道筋1丁目6-3,34.713863,135.227147,商業施設,対応不可
62,グランド六甲ビル,657-0035,灘区,神戸市灘区友田町5丁目2番2号,34.711475,135.239084,商業施設,対応不可
63,三井住友銀行 六甲支店,657-0065,灘区,神戸市灘区宮山町2丁目6-8,34.720547,135.234107,商業施設,対応不可
64,六甲摩耶鉄道山上駅,657-0101,灘区,神戸市灘区六甲山町一ヶ谷1番32号,34.751921,135.236918,公共交通機関,対応不可
65,六甲摩耶鉄道ケーブル下駅,657-0001,灘区,神戸市灘区高羽字西山8番の2,34.73727,135.233403,公共交通機関,対応不可
66,三井住友銀行 灘支店,657-0037,灘区,神戸市灘区備後町5丁目3-1-102,34.713762,135.238092,商業施設,対応不可
67,ゆうとぴ庵神戸石屋川,657-0034,灘区,神戸市灘区記田町1丁目3-7,34.714265,135.248496,福祉施設,対応不可
68,兵庫県立神戸高校,657-0804,灘区,神戸市灘区城の下通1丁目5-I,34.718058,135.214645,学校・園・児童館,対応不可
69,六甲山ホテル,657-0101,灘区,神戸市灘区六甲山町南六甲1034番地,34.75579,135.22642,宿泊施設,24時間利用可
70,(株)神鋼エンジニアリング&メンテナンス,657-0846,灘区,神戸市灘区岩屋北町4丁目5-22,34.704727,135.218977,会社・事業所,対応不可
71,(株)みなと銀行 水道筋支店,657-0831,灘区,神戸市灘区水道筋3-10-1,34.712977,135.22459,商業施設,対応不可
72,(株)みなと銀行 六甲道支店,657-0038,灘区,神戸市灘区深田町4丁目1-39,34.714532,135.239227,商業施設,対応不可
73,神戸信用金庫 石屋川支店,657-0034,灘区,神戸市灘区記田町2-3-19,34.714606,135.247619,商業施設,対応不可
74,かたの歯科医院,657-0815,灘区,神戸市灘区薬師通1-1-10,34.719893,135.222672,医療関連施設,対応不可
75,大西歯科,657-0064,灘区,神戸市灘区山田町2-1-1,34.721431,135.235465,医療関連施設,対応不可
76,さわだ歯科,657-0051,灘区,神戸市灘区八幡町4-5-8-1F,34.717918,135.234168,医療関連施設,対応不可
77,本庄歯科医院,657-0836,灘区,神戸市灘区城内通2丁目5-14本庄ビル2F,34.709164,135.218348,医療関連施設,対応不可
78,まえだファミリー歯科,657-0025,灘区,神戸市灘区高徳町4丁目1-1,34.718823,135.242606,医療関連施設,対応不可
80,フタニ歯科医院,657-0027,灘区,神戸市灘区永手町4丁目2-1フォレスタ六甲44,34.715605,135.238125,医療関連施設,対応不可
81,久保田歯科,657-0824,灘区,神戸市灘区福住通5-3-10,34.713743,135.220286,医療関連施設,対応不可
82,くずはら整形外科,657-0034,灘区,神戸市灘区記田町2丁目2-15,34.714216,135.247601,医療関連施設,対応不可
83,李内科クリニック,657-0053,灘区,神戸市灘区六甲町1-6-19,34.71618,135.235659,医療関連施設,対応不可
84,春日井クリニック,657-0028,灘区,神戸市灘区森後町3丁目3-21,34.715726,135.236561,医療関連施設,対応不可
86,鈴田内科・眼科医院,657-0059,灘区,神戸市灘区篠原南町3-7-13,34.717061,135.22958,医療関連施設,対応不可
87,山中眼科医院,657-0023,灘区,神戸市灘区高羽町2-10-13,34.723613,135.241101,医療関連施設,対応不可
88,おがわ内科クリニック,657-0835,灘区,神戸市灘区灘北通10-1-3-101,34.70632,135.217045,医療関連施設,対応不可
89,前田耳鼻咽喉科,657-0838,灘区,神戸市灘区王子町1-1-14前納ビル1F,34.710318,135.219203,医療関連施設,対応不可
91,いまにし泌尿器科,657-0846,灘区,神戸市灘区岩屋北町2-3-13,34.705463,135.220945,医療関連施設,対応不可
92,森クリニック,657-0846,灘区,神戸市灘区岩屋北町3-2-16,34.704789,135.219634,医療関連施設,対応不可
93,中井病院,657-0834,灘区,神戸市灘区泉通6-3-8,34.709734,135.222164,医療関連施設,対応不可
94,谷眼科医院,657-0028,灘区,神戸市灘区森後町3-1-7嶋田ビル1F,34.715518,135.237151,医療関連施設,対応不可
96,灘診療所,657-0831,灘区,神戸市灘区水道筋6-6-3,34.711074,135.220133,医療関連施設,対応不可
97,奥本医院,657-0043,灘区,神戸市灘区大石東町4丁目5-18,34.708573,135.23535,医療関連施設,対応不可
98,村山医院,657-0059,灘区,神戸市灘区篠原南町5-5-13,34.715686,135.227896,医療関連施設,対応不可
99,関本クリニック,657-0051,灘区,神戸市灘区八幡町3-4-5,34.718438,135.235726,医療関連施設,対応不可
100,廣海内科クリニック,657-0054,灘区,神戸市灘区稗原町1-3-23北嶋ビル1階,34.714313,135.236853,医療関連施設,対応不可
101,大田整形外科クリニック,657-0846,灘区,神戸市灘区岩屋北町5-1-31,34.704067,135.21676,医療関連施設,対応不可
102,辻本内科,657-0027,灘区,神戸市灘区永手町5-8-19,34.715446,135.237685,医療関連施設,対応不可
103,井原クリニック,657-0833,灘区,神戸市灘区大内通2-9-5,34.711832,135.227185,医療関連施設,対応不可
104,片野眼科,657-0036,灘区,神戸市灘区桜口町3-2-4,34.713142,135.2405,医療関連施設,対応不可
105,うすき医院,657-0035,灘区,神戸市灘区友田町4-4-7,34.711748,135.239752,医療関連施設,対応不可
107,うすき診療所,657-0027,灘区,神戸市灘区永手町5-3-25,34.715019,135.237872,医療関連施設,対応不可
108,竹内内科,657-0051,灘区,神戸市灘区八幡町2-1-29,34.718135,135.237816,医療関連施設,対応不可
109,岡田整形外科医院,657-0843,灘区,神戸市灘区大石北町7-22,34.706606,135.231577,医療関連施設,対応不可
110,陰下循環器内科,657-0065,灘区,神戸市灘区宮山町3-3-1,34.720192,135.233875,医療関連施設,対応不可
111,中林整形外科クリニック,657-0831,灘区,神戸市灘区水道筋4-3-14,34.712908,135.222842,医療関連施設,対応不可
112,内科クリニック岡田,657-0825,灘区,神戸市灘区中原通2-1-3,34.714164,135.223908,医療関連施設,対応不可
114,瀬戸本医院,657-0834,灘区,神戸市灘区泉通5-1-8,34.709982,135.223991,医療関連施設,対応不可
115,中迫医院,657-0063,灘区,神戸市灘区曽和町2-1-5,34.72192,135.234743,医療関連施設,対応不可
116,飯尾整形外科クリニック,657-0067,灘区,神戸市灘区篠原本町1-7-19-1F,34.721617,135.231834,医療関連施設,対応不可
117,松本医院,657-0059,灘区,神戸市灘区篠原南町2-4-5,34.717687,135.231141,医療関連施設,対応不可
118,黒木医院,657-0033,灘区,神戸市灘区徳井町5-1-7,34.713865,135.244014,医療関連施設,対応不可
120,たかやすクリニック,657-0038,灘区,神戸市灘区深田町4-1-1-301,34.713937,135.238777,医療関連施設,対応不可
121,川岸医院,657-0821,灘区,神戸市灘区赤坂通1-1-15,34.718273,135.224446,医療関連施設,対応不可
122,門田外科医院,657-0825,灘区,神戸市灘区中原通6-3-15,34.712903,135.220526,医療関連施設,対応不可
123,やまだ小児科,657-0831,灘区,神戸市灘区水道筋6-2-18,34.711871,135.221221,医療関連施設,対応不可
124,東和医院,657-0846,灘区,神戸市灘区岩屋北町4-3-5,34.704551,135.217612,医療関連施設,対応不可
125,梶山小児科,657-0822,灘区,神戸市灘区畑原通3-1-17,34.716461,135.223,医療関連施設,対応不可
126,川口クリニック,657-0831,灘区,神戸市灘区水道筋5-2-17,34.712583,135.22238,医療関連施設,対応不可
127,はたに内科,657-0028,灘区,神戸市灘区森後町2-2-22,34.716478,135.238308,医療関連施設,対応不可
129,郡山内科,657-0067,灘区,神戸市灘区篠原本町1-1-1,34.720553,135.232196,医療関連施設,対応不可
130,灘ひかり薬局,657-0817,灘区,神戸市灘区上野通4-4-19,34.717607,135.219887,医療関連施設,対応不可
131,灘薬剤師会,657-0038,灘区,神戸市灘区深田町4-1-1,34.714079,135.238922,医療関連施設,対応不可
132,光和調剤薬局,657-0043,灘区,神戸市灘区大石東町4-5-18,34.708543,135.235194,医療関連施設,対応不可
133,上田歯科医院,657-0846,灘区,神戸市灘区岩屋北町3-3-12,34.705368,135.219281,医療関連施設,対応不可
134,渡邊クリニック,657-0038,灘区,神戸市灘区深田町2-2-19,34.715453,135.241432,医療関連施設,対応不可
135,さわだ歯科クリニック,657-0051,灘区,兵庫県神戸市灘区八幡町4-5-8-1F,34.717918,135.234241,医療関連施設,対応不可
136,高塚クリニック,657-0051,灘区,神戸市灘区八幡町2-8-7-2F,34.719295,135.236694,医療関連施設,対応不可
137,槙村医院,657-0059,灘区,神戸市灘区篠原南町1-1-13,34.71677,135.232266,医療関連施設,対応不可
138,坪井医院,657-0023,灘区,神戸市灘区高羽町5-4-28,34.72198,135.238287,医療関連施設,対応不可
139,田中医院,657-0051,灘区,神戸市灘区八幡町1-8-15,34.719982,135.237206,医療関連施設,対応不可
140,石黒歯科医院,657-0838,灘区,神戸市灘区王子町1-3-14-2F,34.710587,135.21912,医療関連施設,対応不可
141,いわくら耳鼻咽喉科,657-0037,灘区,神戸市灘区備後町5-3-1,34.71348,135.237553,医療関連施設,対応不可
142,小田泌尿器科,657-0028,灘区,神戸市灘区森後町3-5-30,34.716456,135.236665,医療関連施設,対応不可
143,辻整形外科医院,657-0834,灘区,神戸市灘区泉通1-2-5,34.711459,135.228583,医療関連施設,対応不可
144,六甲八幡神社,657-0051,灘区,神戸市灘区八幡町3-6-5,34.719174,135.235283,その他,24時間利用可
145,神戸市環境局 灘事業所,657-0041,灘区,神戸市灘区琵琶町2-1-2,34.711346,135.236581,官公庁,対応不可
146,メイン六甲Aビル 管理組合,657-0038,灘区,神戸市灘区深田町4-1-39,34.71501,135.23917,集合住宅,対応不可
147,神戸市環境局自動車管理事務所 東部車庫,657-0041,灘区,神戸市灘区琵琶町2-1-2,34.71124,135.236425,官公庁,対応不可
148,メッチャライト館,657-0831,灘区,神戸市灘区水道筋4-1-16,34.712097,135.22275,商業施設,対応不可
149,財団法人 神戸市開発管理事業団 鶴甲会館,657-0011,灘区,神戸市灘区鶴甲5丁目1番6号,34.736925,135.237452,集会場・ホール,対応不可
150,六甲山郵便局,657-0101,灘区,神戸市灘区六甲山町南六甲1034-144,34.756159,135.228085,商業施設,対応不可
152,パチンコ ジョイタイム,657-0036,灘区,神戸市灘区桜口町4-5-11,34.71313,135.240019,商業施設,対応不可
153,パチンコパーラー大洋,657-0027,灘区,神戸市灘区永手町4-2-1,34.71552,135.238004,商業施設,対応不可
154,メッチャはんくら,657-0831,灘区,神戸市灘区水道筋2-16-3,34.713154,135.224902,商業施設,対応不可
155,神戸市立王子地域福祉センター,657-0825,灘区,神戸市灘区中原通7-5-1,34.711399,135.219004,小集会場・公民館・地域福祉センター,対応不可
156,神戸市立岩屋地域福祉センター,657-0846,灘区,神戸市灘区岩屋北町2-5-3,34.706203,135.221077,小集会場・公民館・地域福祉センター,対応不可
157,神戸市立なぎさ地域福祉センター,657-0855,灘区,神戸市灘区摩耶海岸通2-3-4,34.702123,135.220998,小集会場・公民館・地域福祉センター,対応不可
158,神戸市立篠原地域福祉センター,657-0068,灘区,神戸市灘区篠原北町2-2-37,34.722504,135.228399,小集会場・公民館・地域福祉センター,対応不可
159,神戸市立六甲地域福祉センター,657-0051,灘区,神戸市灘区八幡町4丁目8-28,34.718692,135.233589,小集会場・公民館・地域福祉センター,対応不可
160,神戸市立西灘保育所,657-0846,灘区,神戸市灘区岩屋北町2丁目5-29,34.706523,135.221162,学校・園・児童館,対応不可
161,パチンコBAGUZY,657-0038,灘区,神戸市灘区深田町4丁目1-45,34.714021,135.239653,商業施設,対応不可
162,神戸市立六甲道児童館,657-0038,灘区,神戸市灘区深田町4丁目1-39-401,34.714534,135.239,学校・園・児童館,対応不可
163,神戸市立石屋川保育所,657-0031,灘区,神戸市灘区大和町4丁目4-18,34.717043,135.244421,学校・園・児童館,対応不可
164,プレミオ岩屋店,657-0845,灘区,神戸市灘区岩屋中町1-2-1,34.703926,135.223622,商業施設,対応不可
165,フェニックス新在家店,657-0861,灘区,神戸市灘区新在家北町1丁目1-30,34.710305,135.240301,商業施設,対応不可
166,フェニックスプラザ摩耶,657-0851,灘区,神戸市灘区味泥町6-1,34.704045,135.228535,商業施設,対応不可
167,神戸市立倉石保育所,657-0826,灘区,神戸市灘区倉石通4丁目1-10,34.712754,135.221747,学校・園・児童館,対応不可
168,日清鋼業株式会社,657-0846,灘区,神戸市灘区岩屋北町4-4-1,34.705095,135.218986,会社・事業所,対応不可
169,神戸市立やはた桜保育所,657-0051,灘区,神戸市灘区八幡町2-1-1,34.717918,135.237653,学校・園・児童館,対応不可
171,株式会社協邦グループMETORO,657-0035,灘区,神戸市灘区友田町4-4-3,34.712057,135.240203,商業施設,対応不可
172,神戸市立河原児童館,657-0055,灘区,神戸市灘区上河原通4-1-1,34.711304,135.230759,学校・園・児童館,対応不可
173,神戸市桜ヶ丘保育所:鶴甲分室,657-0011,灘区,神戸市灘区鶴甲1丁目3-13,34.732053,135.238924,学校・園・児童館,対応不可
174,神戸市立原田児童館,657-0838,灘区,神戸市灘区王子町2-3-1,34.711198,135.218524,学校・園・児童館,対応不可
175,神戸市立上野児童館,657-0821,灘区,神戸市灘区赤坂通6-1-18,34.715224,135.218266,学校・園・児童館,対応不可
176,神戸市立灘保育所,657-0864,灘区,神戸市灘区新在家南町5丁目13番15号,34.705094,135.233492,学校・園・児童館,対応不可
177,神戸市立灘児童館,657-0864,灘区,神戸市灘区新在家南町5丁目13-15,34.705148,135.233443,学校・園・児童館,対応不可
178,神戸市立鶴甲児童館,657-0011,灘区,神戸市灘区鶴甲5-1-37,34.736457,135.237849,学校・園・児童館,対応不可
179,神戸市立都児童館,657-0052,灘区,神戸市灘区神前町2-3-12,34.716453,135.233735,学校・園・児童館,対応不可
180,神戸市立稗田学童保育コーナー,657-0833,灘区,神戸市灘区大内通5丁目1-8,34.710665,135.223572,学校・園・児童館,対応不可
181,神戸市立成徳学童保育コーナー,657-0032,灘区,神戸市灘区中郷町3丁目1-12,34.715762,135.245586,学校・園・児童館,対応不可
182,神戸市立成徳地域福祉センター,657-0037,灘区,神戸市灘区備後町1丁目3,34.715711,135.242546,小集会場・公民館・地域福祉センター,対応不可
183,神戸市立新在家地域福祉センター,657-0864,灘区,神戸市灘区新在家南町3丁目2-25,34.70566,135.236598,小集会場・公民館・地域福祉センター,対応不可
184,神戸市立高羽地域福祉センター,657-0024,灘区,神戸市灘区楠丘町4丁目1-16,34.720373,135.241066,小集会場・公民館・地域福祉センター,対応不可
185,神戸市立摩耶地域福祉センター,657-0823,灘区,神戸市灘区天城通3丁目3-7,34.715152,135.221761,小集会場・公民館・地域福祉センター,対応不可
186,神戸市立鶴甲地域福祉センター,657-0011,灘区,神戸市灘区鶴甲2丁目10-1,34.73344,135.236162,小集会場・公民館・地域福祉センター,対応不可
187,神戸市立灘地域福祉センター,657-0056,灘区,神戸市灘区千旦通1丁目5-2,34.713302,135.232098,小集会場・公民館・地域福祉センター,対応不可
188,神戸市立西郷地域福祉センター,657-0843,灘区,神戸市灘区大石北町8-1,34.706924,135.231562,小集会場・公民館・地域福祉センター,対応不可
189,神戸市立六甲山地域福祉センター,657-0101,灘区,神戸市灘区六甲山町西谷山 1878-133,34.753978,135.237325,小集会場・公民館・地域福祉センター,対応不可
190,神戸市立篠原児童館,657-0068,灘区,神戸市灘区篠原北町2丁目2-37,34.722406,135.228521,学校・園・児童館,対応不可
191,神戸海星女子学院小学校,657-0805,灘区,神戸市灘区青谷町2丁目7-1,34.712232,135.211968,学校・園・児童館,対応不可
192,神戸海星女子学院中学校・高等学校,657-0805,灘区,神戸市灘区青谷町2丁目7-1,34.712076,135.211624,学校・園・児童館,対応不可
193,なかはら保育園,657-0825,灘区,神戸市灘区中原通6丁目4-5,34.712407,135.219662,学校・園・児童館,対応不可
194,はっと保育園,657-0855,灘区,神戸市灘区摩耶海岸通2-3-14,34.701632,135.222514,学校・園・児童館,対応不可
195,六甲幼稚園,657-0065,灘区,神戸市灘区宮山町3-3-5,34.71995,135.233225,学校・園・児童館,対応不可
196,神戸市立八幡児童館,657-0051,灘区,神戸市灘区八幡町2-4-11,34.718765,135.237558,学校・園・児童館,対応不可
197,めばえの園保育園,657-0841,灘区,神戸市灘区灘南通4-4-2,34.708513,135.225668,学校・園・児童館,対応不可
198,神戸海星女子学院大学,657-0805,灘区,神戸市灘区青谷町2-7-1,34.712059,135.211318,学校・園・児童館,対応不可
199,ケアハウスきしろ長寿の里,657-0011,灘区,神戸市灘区鶴甲5-1-50,34.738427,135.235282,福祉施設,対応不可
200,養護老人ホーム六甲台ビラ,657-0011,灘区,神戸市灘区鶴甲5-1-50,34.738079,135.235286,福祉施設,対応不可
201,灘公共職業安定所,657-0833,灘区,神戸市灘区大内通5-2-2,34.710356,135.222607,官公庁,対応不可
202,神戸市立高羽児童館,657-0023,灘区,神戸市灘区高羽町3-12-14,34.723017,135.240158,学校・園・児童館,対応不可
203,神戸市立稗田地域福祉センター,657-0826,灘区,神戸市灘区倉石通4-1-10,34.712871,135.221855,小集会場・公民館・地域福祉センター,対応不可
204,親和女子中学校・高等学校(管理棟),657-0022,灘区,神戸市灘区土山町6-1,34.726723,135.241808,学校・園・児童館,対応不可
205,親和女子中学校・高等学校(体育職員室),657-0022,灘区,神戸市灘区土山町6-1,34.727184,135.241923,学校・園・児童館,対応不可
206,親和女子中学校・高等学校(保健室),657-0022,灘区,神戸市灘区土山町6-1,34.726575,135.242226,学校・園・児童館,対応不可
207,神戸松蔭女子学院大学(守衛室),657-0015,灘区,神戸市灘区篠原伯母野山町1-2-1,34.726801,135.22964,学校・園・児童館,対応不可
208,神戸松蔭女子学院大学(体育館),657-0015,灘区,神戸市灘区篠原伯母野山町1-2-1,34.728605,135.229704,学校・園・児童館,対応不可
209,神戸松蔭女子学院大学(6号館),657-0015,灘区,神戸市灘区篠原伯母野山町1-2-1,34.727634,135.230832,学校・園・児童館,対応不可
210,神戸市立灘すずかけ幼稚園,657-0043,灘区,神戸市灘区大石東町6-2-2,34.706911,135.233866,学校・園・児童館,対応不可
211,兵庫県立美術館 王子分館,657-0837,灘区,神戸市灘区原田通3-8-30,34.708659,135.214262,公園・文教施設,対応不可
212,大石保育園,657-0843,灘区,神戸市灘区大石北町3-12,34.705506,135.229699,学校・園・児童館,対応不可
213,ゆりか保育園,657-0057,灘区,神戸市灘区神ノ木通2-2-9,34.713642,135.231162,学校・園・児童館,対応不可
214,ホザナ幼稚園,657-0053,灘区,神戸市灘区六甲町5-7-8,34.71457,135.231741,学校・園・児童館,対応不可
215,神戸市立東部在宅障害者福祉センター,657-0846,灘区,神戸市灘区岩屋北町6-1-4,34.705641,135.21694,福祉施設,対応不可
216,神戸市立王子スポーツセンター,657-0805,灘区,神戸市灘区青谷町1-1-1,34.710215,135.217359,体育施設・スポーツクラブ,対応不可
217,神戸市立王子スポーツセンター,657-0805,灘区,神戸市灘区青谷町1-1-1,34.712754,135.214168,体育施設・スポーツクラブ,対応不可
218,特別養護老人ホーム ロングステージKOBE大石,657-0852,灘区,神戸市灘区大石南町2-4-22,34.703158,135.231998,福祉施設,対応不可
219,特別養護老人ホームきしろ荘,657-0011,灘区,神戸市灘区鶴甲5-1-50,34.738427,135.23557,福祉施設,対応不可
220,児童養護施設 双葉学園,657-0011,灘区,神戸市灘区鶴甲1-5-1,34.733096,135.239954,福祉施設,対応不可
221,神戸市公園緑化協会 動物園事業部(王子動物園),657-0838,灘区,神戸市灘区王子町3-1-1,34.709235,135.214947,公園・文教施設,対応不可
222,コープ六甲,657-0028,灘区,神戸市灘区森後町3丁目5番38号,34.716559,135.236837,商業施設,対応不可
223,灘センター街振興組合,657-0826,灘区,神戸市灘区倉石通3-1-1,34.713207,135.223162,商業施設,24時間利用可
224,水道筋協同組合,657-0831,灘区,神戸市灘区水道筋4丁目2?6,34.712653,135.223103,商業施設,24時間利用可
225,ライフケア神戸,657-0058,灘区,神戸市灘区将軍通2-1-6,34.714953,135.230546,医療関連施設,対応不可
226,日笠工業株式会社,657-0852,灘区,神戸市灘区大石南町3-3-1,34.703372,135.230785,会社・事業所,対応不可
227,西日本旅客鉄道株式会社 六甲道駅,657-0027,灘区,神戸市灘区永手町4-1-1,34.714942,135.238688,公共交通機関,対応不可
228,西日本旅客鉄道株式会社 灘駅,657-0846,灘区,神戸市灘区岩屋北町7-3-1,34.705698,135.216059,公共交通機関,対応不可
229,阪急電鉄(株) 六甲駅,657-0065,灘区,神戸市灘区宮山町3-1,34.719992,135.234447,公共交通機関,対応不可
230,阪急電鉄(株) 王子公園駅,657-0838,灘区,神戸市灘区王子町1-4-20,34.70967,135.217913,公共交通機関,対応不可
231,株式会社ワイ・ケイ・アソシエ まるちゃんクラブ,657-0831,灘区,神戸市灘区水道筋4-2-2,34.712762,135.22317,商業施設,対応不可
232,橋本商事株式会社 王子広場,657-0831,灘区,神戸市灘区水道筋6-3-1,34.711663,135.220799,商業施設,対応不可
233,オルゴールミュージアム ホール・オブ・ホールズ六甲,657-0101,灘区,神戸市灘区六甲山町4512-145,34.761697,135.238491,商業施設,対応不可
234,阪神総合レジャー株式会社 六甲ガーデンテラス,657-0101,灘区,神戸市灘区六甲山町五介山1877-9,34.764439,135.247547,商業施設,対応不可
235,株式会社 阪神観光 メチャスロ,657-0831,灘区,神戸市灘区水道筋3-3,34.713028,135.224104,商業施設,対応不可
236,六甲山フィールドアスレチック,657-0101,灘区,神戸市灘区六甲山町北六甲4512-98,34.767946,135.247654,体育施設・スポーツクラブ,対応不可
237,六甲山スノーパーク,657-0101,灘区,神戸市灘区六甲山町北六甲4512-98,34.7671,135.242004,体育施設・スポーツクラブ,対応不可
238,ウェルブ六甲道1番街,657-0037,灘区,神戸市灘区備後町5丁目3-1,34.713951,135.238005,集合住宅,24時間利用可
239,T-PLUS,657-0038,灘区,神戸市灘区深田町4-1-39,34.715028,135.239153,商業施設,対応不可
240,株式会社フィルケア グランフォレスト神戸六甲,657-0032,灘区,神戸市灘区中郷町3-3-7,34.716569,135.24517,福祉施設,24時間利用可
241,神戸大学大学 教育推進機構体育館,657-0011,灘区,神戸市灘区鶴甲1-2-1,34.732021,135.237883,学校・園・児童館,対応不可
242,神戸大学 社会科学系図書館,657-0013,灘区,神戸市灘区六甲台町1-1,34.729176,135.234191,学校・園・児童館,対応不可
243,神戸大学 百年記念館,657-0013,灘区,神戸市灘区六甲台町1-1,34.724627,135.2361,学校・園・児童館,対応不可
244,神戸大学 人文学研究科棟A棟,657-0013,灘区,神戸市灘区六甲台町1-1,34.724635,135.235064,学校・園・児童館,対応不可
245,神戸大学 学生会館センター,657-0013,灘区,神戸市灘区六甲台町1-1,34.729268,135.236292,学校・園・児童館,対応不可
246,神戸大学 六甲台1団地第1共用施設,657-0013,灘区,神戸市灘区六甲台町1-1,34.724968,135.236748,学校・園・児童館,対応不可
247,神戸大学 農学研究科A棟,657-0013,灘区,神戸市灘区六甲台町1-1,34.724672,135.233511,学校・園・児童館,対応不可
248,神戸大学 自然科学系先端融合研究環1号館,657-0013,灘区,神戸市灘区六甲台町1-1,34.726064,135.234486,学校・園・児童館,対応不可
249,神戸大学 法学研究科六甲台第二学舎,657-0013,灘区,神戸市灘区六甲台町1-1,34.729046,135.2334,学校・園・児童館,24時間利用可
250,神戸大学 高井記念学生スポーツ会館,657-0011,灘区,神戸市灘区鶴甲3-11,34.730755,135.237389,学校・園・児童館,対応不可
251,神戸大学 人間発達環境学研究科,657-0011,灘区,神戸市灘区鶴甲3-11,34.733466,135.234586,学校・園・児童館,対応不可
252,グランダ御影西,657-0034,灘区,神戸市灘区記田町2-1-11,34.713478,135.247794,福祉施設,対応不可
253,神戸製鋼所 神戸製鉄所総合事務所,657-0863,灘区,神戸市灘区灘浜東町2,34.707621,135.245674,会社・事業所,対応不可
254,神戸製鋼所 神戸製鉄所更衣室棟,657-0863,灘区,神戸市灘区灘浜東町2,34.707543,135.244932,会社・事業所,対応不可
255,神戸製鋼所 神戸製鉄所保全センター,657-0863,灘区,神戸市灘区灘浜東町2,34.707535,135.245776,会社・事業所,対応不可
256,神戸製鋼所 神鋼神戸発電所内タービン棟,657-0863,灘区,神戸市灘区灘浜東町3,34.703728,135.240576,会社・事業所,対応不可
257,特別養護老人ホームうみのほし,657-0068,灘区,神戸市灘区篠原北町3-11-15,34.724328,135.225041,福祉施設,対応不可
258,介護老人保健施設ケアホームすばる,657-0031,灘区,神戸市灘区大和町1-2-1,34.717655,135.247879,福祉施設,対応不可
259,コンフォートヒルズ六甲,657-0068,灘区,神戸市灘区篠原北町3-11-14,34.724206,135.225286,福祉施設,対応不可
260,摩耶シーサイドプレイスイースト管理組合,657-0855,灘区,神戸市灘区摩耶海岸通1丁目1番,34.700046,135.222223,集合住宅,24時間利用可
261,GRAND HOTEL 六甲スカイウ ゙ィラ,657-0101,灘区,神戸市灘区六甲山町西谷山 1878-86,34.757966,135.243358,宿泊施設,対応不可
262,サンクタス六甲VIEWS管理組合,657-0014,灘区,神戸市灘区大土平町1-4-11,34.725974,135.231985,集合住宅,対応不可
263,エレガーノ摩耶,657-0855,灘区,神戸市灘区摩耶海岸通1-3-10,34.699626,135.220542,福祉施設,24時間利用可
264,阪神電鉄 新在家駅,657-0861,灘区,神戸市灘区新在家北町1丁目4-1,34.710643,135.240839,公共交通機関,対応不可
265,阪神電鉄 大石駅,657-0842,灘区,神戸市灘区船寺通1丁目4-2,34.707696,135.231137,公共交通機関,対応不可
266,阪神電鉄 西灘駅,657-0844,灘区,神戸市灘区都通5丁目5-1,34.705953,135.224797,公共交通機関,対応不可
267,リベール灘アベリア管理組合,657-0841,灘区,神戸市灘区灘南通6-3-1,34.707659,135.223074,集合住宅,24時間利用可
268,上野ハイツ,657-0817,灘区,神戸市灘区上野通1丁目2-35,34.71855,135.223724,集合住宅,24時間利用可
269,コープこうべ コープ篠原,657-0068,灘区,神戸市灘区篠原北町2丁目2番14号,34.722382,135.227315,商業施設,対応不可
270,ジークレフ六甲の丘,657-0015,灘区,神戸市灘区篠原伯母野山町2丁目3-1,34.726455,135.228394,集合住宅,24時間利用可
271,ハーバーハイウェイ摩耶埠頭料金所事務所,657-0854,灘区,神戸市灘区摩耶埠頭 摩耶埠頭料金所事務所,34.697477,135.227233,会社・事業所,24時間利用可
272,ハーバーハイウェイ摩耶大橋料金所,657-0854,灘区,神戸市灘区摩耶埠頭 摩耶大橋料金所,34.69592,135.219736,会社・事業所,対応不可
273,コープこうべ コープミニ高羽,657-0023,灘区,神戸市灘区高羽町3丁目14番10号,34.723929,135.239933,商業施設,対応不可
274,コープこうべ コープミニ摩耶,657-0817,灘区,神戸市灘区上野通2丁目4-10,34.71879,135.222646,商業施設,対応不可
275,コープこうべ コープミニ水道筋,657-0831,灘区,神戸市灘区水道筋6丁目7番3号,34.710976,135.219519,商業施設,対応不可
276,コープこうべ コープミニやまと,657-0031,灘区,神戸市灘区大和町4丁目1-14,34.716931,135.244516,商業施設,対応不可
277,神戸税関摩耶埠頭出張所,657-0854,灘区,神戸市灘区摩耶埠頭,34.696361,135.22667,官公庁,対応不可
278,(有)神戸清掃舎,657-0851,灘区,神戸市灘区味泥町7番32号,34.704664,135.229735,会社・事業所,対応不可
279,兵庫県警灘警察署,657-0831,灘区,神戸市灘区灘浜東町11番,34.714098,135.22787,官公庁,24時間利用可
280,兵庫県警灘警察琵琶町交番,657-0041,灘区,神戸市灘区琵琶町3丁目1-6,34.71072,135.235288,官公庁,24時間利用可
281,シマブンオフィスタワーBB PLAZA,657-0845,灘区,神戸市灘区岩屋中町4丁目2-7,34.703096,135.217619,会社・事業所,対応不可
282,社会福祉法人神戸婦人同情会青谷愛児園,657-0805,灘区,神戸市灘区青谷町2丁目1-9,34.713212,135.213946,福祉施設,対応不可
283,高羽COCORO保育園,657-0025,灘区,神戸市灘区高徳町5丁目2-3,34.71827,135.240773,学校・園・児童館,対応不可
284,社会福祉法人 鶯園 六甲道COCORO保育園,657-0041,灘区,神戸市灘区琵琶町2丁目-1-27,34.711728,135.236802,学校・園・児童館,対応不可
285,トラストグレイス御影,657-0022,灘区,神戸市灘区土山町16-1,34.731902,135.24252,福祉施設,対応不可
286,社会福祉法人 桜谷福祉会 神戸さくら保育園,657-0862,灘区,神戸市灘区浜田町2丁目2-15,34.710519,135.242797,学校・園・児童館,対応不可
287,学校法人 小倉育英会 西灘幼稚園,657-0846,灘区,神戸市灘区岩屋北町3丁目2-14,34.704849,135.219345,学校・園・児童館,対応不可
288,六甲ゆりかご保育園,657-0035,灘区,神戸市灘区友田町2丁目5-1,34.71239,135.242945,学校・園・児童館,対応不可
289,日新信用金庫 六甲支店,657-0036,灘区,神戸市灘区桜口町3丁目1-1-107,34.71273,135.24058,商業施設,対応不可
290,学校法人 若草学園 若草幼稚園,657-0022,灘区,神戸市灘区土山町1-5,34.724016,135.242625,学校・園・児童館,対応不可
291,日新信用金庫 西灘支店,657-0832,灘区,神戸市灘区岸地通4丁目4-15,34.712049,135.223433,会社・事業所,対応不可
292,学校法人 染矢学園 微笑幼稚園,657-0068,灘区,神戸市灘区篠原北町3丁目6-7,34.724095,135.228159,学校・園・児童館,対応不可
293,博光福祉会 花音つばさ保育園,657-0836,灘区,神戸市灘区城内通1丁目6-32,34.709448,135.220185,学校・園・児童館,対応不可
294,学校法人 八幡学園 認定こども園 八幡幼稚園,657-0038,灘区,神戸市灘区深田町1丁目1-3,34.715973,135.242252,学校・園・児童館,対応不可
295,株式会社 ケーエスケー 神戸支店,657-0845,灘区,神戸市灘区岩屋中町2-2-1,34.703551,135.221575,会社・事業所,対応不可
296,養護盲老人ホーム 千山荘,657-0011,灘区,神戸市灘区鶴甲5丁目1-50,34.738342,135.236121,福祉施設,24時間利用可
297,ローソン神戸徳井町4丁目店,657-0033,灘区,神戸市灘区徳井町4丁目1-2,34.71449,135.245714,商業施設,24時間利用可
1,神戸高速鉄道(株) 高速神戸駅,650-0015,中央区,神戸市中央区多聞通3-3-13,34.67995,135.175414,公共交通機関,対応不可
2,神戸高速鉄道(株) 西元町駅,650-0022,中央区,神戸市中央区元町通6-7-11,34.683792,135.179614,公共交通機関,対応不可
3,神戸高速鉄道(株) 花隈駅,650-0012,中央区,神戸市中央区北長狭通6-3-5,34.686178,135.181324,公共交通機関,対応不可
4,神戸高速鉄道(株) 本社,650-0015,中央区,神戸市中央区多聞通3丁目3番9号,34.680154,135.176472,会社・事業所,対応不可
5,神戸市営地下鉄 三宮駅,650-0012,中央区,神戸市中央区北長狭通1,34.693858,135.192296,公共交通機関,対応不可
6,神戸新交通(株) 三宮駅,651-0096,中央区,神戸市中央区雲井通8丁目,34.694681,135.195312,公共交通機関,対応不可
7,二宮地域福祉センター,651-0093,中央区,神戸市中央区二宮町3-12,34.700106,135.195694,小集会場・公民館・地域福祉センター,対応不可
8,神戸信用金庫 本店,650-0035,中央区,神戸市中央区浪花町61,34.689902,135.192933,商業施設,対応不可
9,コナミスポーツクラブ 神戸店,650-0044,中央区,神戸市中央区東川崎町1-7-7 キャナルガーデン6F,34.68051,135.182988,体育施設・スポーツクラブ,対応不可
10,コナミスポーツクラブ 三宮店,651-0087,中央区,神戸市中央区御幸通5丁目1-21,34.693391,135.198925,体育施設・スポーツクラブ,対応不可
11,(独)国際協力機構兵庫国際センター,651-0073,中央区,神戸市中央区脇浜海岸通1-5-2,34.698935,135.216151,官公庁,対応不可
12,三宮ターミナルホテル,651-0096,中央区,神戸市中央区雲井通8丁目1番2号,34.694204,135.194723,宿泊施設,24時間利用可
13,ディエヌ建物管理(株)(ダイヤニッセイビル),650-0044,中央区,神戸市中央区東川崎町1丁目7-4,34.679502,135.181609,商業施設,対応不可
14,神戸地下街(株) さんちか(神戸交通センタービル),650-0021,中央区,神戸市中央区三宮町1丁目10番1号,34.693381,135.194004,商業施設,対応不可
15,神戸地下街(株) デュオこうべ浜の手(防災センター),650-0021,中央区,神戸市中央区東川崎町1-2-3,34.679697,135.178713,商業施設,24時間利用可
16,(株)大丸神戸店,650-0037,中央区,神戸市中央区明石町40番地,34.688811,135.190443,商業施設,対応不可
17,旧居留地連絡協議会((株)大丸カーポート),650-0036,中央区,神戸市中央区播磨町29番1号,34.687721,135.191457,商業施設,対応不可
18,神戸文化ホール,650-0017,中央区,神戸市中央区楠町4丁目2-2,34.683736,135.173042,集会場・ホール,対応不可
20,(財)神戸市体育協会,651-0083,中央区,神戸市中央区浜辺通5丁目1番14号,34.688315,135.199716,官公庁,対応不可
21,兵庫県災害対策センター,650-0011,中央区,神戸市中央区中山手通5丁目2,34.691622,135.182243,官公庁,対応不可
22,神戸市立 こうべ市民福祉交流センター,651-0086,中央区,神戸市中央区磯上通3丁目1番32号,34.692916,135.201685,官公庁,対応不可
24,神戸元町商店街 (株)丸太や,650-0022,中央区,神戸市中央区元町通1-7-2,34.688938,135.189182,商業施設,対応不可
25,神戸元町商店街 (株)神戸風月堂,650-0022,中央区,神戸市中央区元町通3丁目3?10,34.687793,135.186066,商業施設,対応不可
26,神戸市立総合福祉センター,650-0016,中央区,神戸市中央区橘通3丁目4番1号,34.681282,135.174562,集会場・ホール,対応不可
27,中央区役所,651-0096,中央区,神戸市中央区雲井通5丁目1番1号,34.69502,135.197926,官公庁,24時間利用可
28,(株)神戸サンセンタープラザ,650-0021,中央区,神戸市中央区三宮町2丁目11番1-604号,34.691208,135.191166,商業施設,対応不可
29,神戸市生涯学習センター(コミスタこうべ),651-0076,中央区,神戸市中央区吾妻通4丁目1番6号,34.698142,135.204746,集会場・ホール,対応不可
30,神戸市総合児童センター(こべっこランド),650-0044,中央区,神戸市中央区東川崎町1-3-1,34.678707,135.181246,学校・園・児童館,対応不可
31,神戸市男女共同参画センター(あすてっぷKOBE),650-0016,中央区,神戸市中央区橘通3丁目4番3号,34.681728,135.174227,集会場・ホール,対応不可
32,神戸国際会館,651-0087,中央区,神戸市中央区御幸通8丁目1番6号,34.692393,135.195982,商業施設,対応不可
33,ANAクラウンプラザホテル神戸,650-0001,中央区,神戸市中央区加納町1丁目3番2,34.704678,135.195306,宿泊施設,24時間利用可
35,神戸YMCA,650-0001,中央区,神戸市中央区加納町2-7-5,34.700887,135.193658,体育施設・スポーツクラブ,対応不可
36,神戸市立博物館,650-0034,中央区,神戸市中央区京町24番地,34.687262,135.192979,公園・文教施設,対応不可
37,(株)神戸商工貿易センター,651-0083,中央区,神戸市中央区浜辺通5丁目1番14号,34.688318,135.199799,商業施設,対応不可
38,阪急電鉄株式会社 三宮駅,650-0001,中央区,神戸市中央区加納町4丁目2番1号,34.693424,135.193266,公共交通機関,対応不可
39,兵庫信用金庫 神戸中央支店,650-0004,中央区,神戸市中央区中山手通2丁目4番1号,34.694362,135.18826,商業施設,対応不可
40,生田文化会館,650-0004,中央区,神戸市中央区中山手通6丁目1番40号,34.691032,135.181074,集会場・ホール,対応不可
41,葺合文化センター,651-0068,中央区,神戸市中央区旗塚通4丁目4番1号,34.704508,135.202006,集会場・ホール,対応不可
42,神戸市営地下鉄 新神戸駅,650-0001,中央区,神戸市中央区加納町1丁目,34.704394,135.195521,公共交通機関,対応不可
43,神戸市営地下鉄 県庁前駅,650-0011,中央区,神戸市中央区下山手通5丁目,34.690815,135.183865,公共交通機関,対応不可
44,神戸市営地下鉄 大倉山駅,650-0017,中央区,神戸市中央区楠町3丁目,34.684301,135.174291,公共交通機関,対応不可
45,神戸市営地下鉄 三宮・花時計駅,651-0087,中央区,神戸市中央区御幸通8丁目,34.691825,135.196149,公共交通機関,対応不可
46,神戸市営地下鉄 ハーバーランド駅,650-0044,中央区,神戸市中央区東川崎町1丁目,34.678204,135.178566,公共交通機関,対応不可
47,阪神電気鉄道株式会社 神戸三宮駅,651-0088,中央区,神戸市中央区小野柄通8丁目1-8,34.693653,135.19534,公共交通機関,対応不可
48,神戸市総合教育センター,650-0044,中央区,神戸市中央区東川崎町1丁目3番2号,34.678213,135.180961,集会場・ホール,対応不可
49,(株)ノリス神戸三宮店,650-0001,中央区,神戸市中央区加納町6-6-2 ハニービル1F,34.691097,135.194932,商業施設,対応不可
50,株式会社 タクト(神戸ハーバーランド モザイク),650-0044,中央区,神戸市中央区東川崎町1丁目6番1号,34.6799,135.184432,商業施設,対応不可
51,神戸市立中央図書館,650-0017,中央区,神戸市中央区楠町7丁目2-1,34.685705,135.174,公園・文教施設,対応不可
52,三宮ビル管理株式会社(三宮ビル南館),651-0087,中央区,神戸市中央区御幸通7丁目1番15号,34.692599,135.196597,会社・事業所,対応不可
53,神戸市立三宮図書館,651-0096,中央区,神戸市中央区雲井通5-1-2,34.694755,135.197389,公園・文教施設,対応不可
54,神戸市役所本庁舎(1号館),650-0001,中央区,神戸市中央区加納町6丁目5番1号,34.689485,135.1959,官公庁,対応不可
55,神戸市立中央体育館,650-0017,中央区,神戸市中央区楠町4-1-1,34.682983,135.17453,体育施設・スポーツクラブ,対応不可
56,東町、江戸町ビル管理組合,650-0033,中央区,神戸市中央区江戸町98-1,34.689318,135.194567,会社・事業所,対応不可
57,神戸市環境局中央事業所,651-0072,中央区,神戸市中央区脇浜町3-2-30,34.700099,135.211389,官公庁,対応不可
58,神戸市立生田川児童館,651-0081,中央区,神戸市中央区真砂通2-1-1,34.695012,135.204624,学校・園・児童館,対応不可
59,神戸市立神戸諏訪山児童館,650-0012,中央区,神戸市中央区北長狭通4-9-5 元町北会館2階,34.690735,135.185808,学校・園・児童館,対応不可
60,神戸市立清風児童館,650-0017,中央区,神戸市中央区楠町8丁目10-3,34.686396,135.174391,学校・園・児童館,対応不可
61,たちばな児童館,650-0016,中央区,神戸市中央区橘通3-4-1,34.681515,135.174394,学校・園・児童館,対応不可
62,神戸市立八雲児童館,651-0078,中央区,神戸市中央区八雲通1-1-7,34.700918,135.206894,学校・園・児童館,対応不可
69,こうべまちづくりセンター,650-0022,中央区,神戸市中央区元町通4-2-14,34.686097,135.182962,集会場・ホール,対応不可
70,神戸市勤労会館,651-0096,中央区,神戸市中央区雲井通5-1-2,34.694746,135.197367,集会場・ホール,対応不可
71,株式会社 そごう神戸店,651-0088,中央区,神戸市中央区小野柄通8丁目1番8号,34.693204,135.195649,商業施設,対応不可
72,神戸市産業振興センター,650-0044,中央区,神戸市中央区東川崎町1-8-4,34.680587,135.181736,官公庁,対応不可
73,JR神戸駅,650-0025,中央区,神戸市中央区相生町3-1-1,34.680011,135.178289,公共交通機関,24時間利用可
74,JR新神戸駅,650-0001,中央区,神戸市中央区加納町1-3-1,34.706218,135.195336,公共交通機関,対応不可
75,JR三ノ宮駅,651-0097,中央区,神戸市中央区布引町4-1-1,34.694456,135.194566,公共交通機関,対応不可
77,神戸市営地下鉄 旧居留地・大丸前駅,650-0021,中央区,神戸市中央区三宮町2丁目,34.689326,135.190142,公共交通機関,対応不可
78,神戸市営地下鉄 みなと元町駅,650-0023,中央区,神戸市中央区栄町通4丁目,34.685997,135.184111,公共交通機関,対応不可
80,日本放送協会神戸放送局,650-0004,中央区,神戸市中央区中山手通2丁目24番7号,34.695376,135.188431,会社・事業所,対応不可
81,上筒井小学校,651-0054,中央区,神戸市中央区野崎通1丁目1番2号,34.710642,135.211454,学校・園・児童館,対応不可
82,なぎさ小学校,651-0073,中央区,神戸市中央区脇浜海岸通2-4-1,34.697887,135.211199,学校・園・児童館,対応不可
83,宮本小学校,651-0063,中央区,神戸市中央区宮本通2-1-36,34.706719,135.211771,学校・園・児童館,対応不可
84,春日野小学校,651-0063,中央区,神戸市中央区宮本通7-1-6,34.705416,135.206632,学校・園・児童館,対応不可
85,雲中小学校,651-0056,中央区,神戸市中央区熊内町3-1-7,34.705894,135.199983,学校・園・児童館,対応不可
86,こうべ小学校,650-0004,中央区,神戸市中央区中山手通4-23-2,34.693605,135.182657,学校・園・児童館,対応不可
87,山の手小学校,650-0004,中央区,神戸市中央区中山手通7-31-1,34.690518,135.175504,学校・園・児童館,対応不可
88,湊小学校,650-0044,中央区,神戸市中央区東川崎町1-4-1,34.677025,135.180855,学校・園・児童館,対応不可
89,(株)フィリップスエレクトロニクスジャパン,651-0083,中央区,神戸市中央区浜辺通2-1-30,34.691716,135.201388,会社・事業所,対応不可
90,神戸市立中央小学校,651-0067,中央区,神戸市中央区神若通り7-1-1,34.701552,135.199823,学校・園・児童館,対応不可
92,神戸市立筒井台中学校,651-0054,中央区,神戸市中央区野崎通り1-1-3,34.709296,135.209975,学校・園・児童館,対応不可
93,神戸市立渚中学校,651-0073,中央区,神戸市中央区脇浜海岸通2-1-1,34.700674,135.216726,学校・園・児童館,対応不可
94,神戸市立葺合中学校,651-0056,中央区,神戸市中央区熊内町1-4-28,34.706877,135.203449,学校・園・児童館,対応不可
95,神戸市立布引中学校,651-0056,中央区,神戸市中央区熊内町6-7-1,34.709429,135.199172,学校・園・児童館,対応不可
96,神戸市立神戸生田中学校,650-0012,中央区,神戸市中央区北長狭通り4-10-1,34.689929,135.185538,学校・園・児童館,対応不可
98,神戸市立葺合高等学校,651-0054,中央区,神戸市中央区野崎通り1-1-1,34.711088,135.210521,学校・園・児童館,対応不可
99,神戸市立科学技術高等学校,651-0072,中央区,神戸市中央区脇浜町1-4-70,34.70419,135.213589,学校・園・児童館,対応不可
100,神戸市立摩耶兵庫高等学校,650-0044,中央区,神戸市中央区東川崎町1-3-8,34.676731,135.179182,学校・園・児童館,対応不可
101,神戸市立盲学校,650-0044,中央区,神戸市中央区東川崎町1-4-2,34.677408,135.180228,学校・園・児童館,対応不可
102,神港ビルヂング株式会社,650-0024,中央区,神戸市中央区海岸通り8番,34.686831,135.192273,商業施設,対応不可
103,播州信用金庫三宮支店,650-0021,中央区,神戸市中央区三宮町1-1-3,34.690834,135.194152,商業施設,対応不可
104,播州信用金庫三宮北支店,650-0001,中央区,神戸市中央区加納町2-6-1,34.700525,135.193859,商業施設,対応不可
105,三井住友銀行 神戸営業部,650-0035,中央区,神戸市中央区浪花町56,34.688586,135.192224,商業施設,対応不可
106,三井住友銀行 兵庫県庁出張所,650-0011,中央区,神戸市中央区下山手通5-10-1,34.691152,135.183102,商業施設,対応不可
107,三井住友銀行 神戸市役所出張所,650-0001,中央区,神戸市中央区加納町6-5-1,34.690416,135.195373,商業施設,対応不可
108,三井住友銀行 神戸駅前支店,650-0015,中央区,神戸市中央区多聞通3-3-9,34.679998,135.176506,商業施設,対応不可
110,三井住友銀行 三宮支店,650-0021,中央区,神戸市中央区三宮町1-5-1,34.691843,135.194652,商業施設,対応不可
111,ドンク三宮本店,650-0021,中央区,神戸市中央区三宮町2-10-19,34.690548,135.190421,商業施設,対応不可
112,三宮国際ビルディング,651-0083,中央区,神戸市中央区浜辺通2-1-30,34.691888,135.201584,商業施設,対応不可
113,三宮グランドビルディング,651-0086,中央区,神戸市中央区磯上通2-2-21,34.693929,135.202218,商業施設,対応不可
114,三宮中央ビル,651-0087,中央区,神戸市中央区御幸通4-2-20,34.694128,135.199511,商業施設,対応不可
115,三宮ビル東館,651-0087,中央区,神戸市中央区御幸通6-1-12,34.693141,135.197893,商業施設,対応不可
116,神港学園神港高等学校,650-0003,中央区,神戸市中央区山本通4-19-20,34.694324,135.183179,学校・園・児童館,対応不可
117,貿易ビル,650-0031,中央区,神戸市中央区東町123-1,34.68751,135.19543,商業施設,対応不可
119,富国生命保険相互会社,650-0024,中央区,神戸市中央区海岸通1-2-31,34.68654,135.189503,会社・事業所,対応不可
120,シンセーシステム(株)神戸ユニオンホテル,651-0087,中央区,神戸市中央区御幸通2-1-10,34.694398,135.201536,宿泊施設,24時間利用可
121,(株)みなと銀行 本部営業部,650-0021,中央区,神戸市中央区三宮町2-1-1,34.689894,135.192063,商業施設,対応不可
122,(株)みなと銀行 春日野支店,651-0071,中央区,神戸市中央区筒井町3-12-14,34.702683,135.207284,商業施設,対応不可
123,(株)みなと銀行 三宮支店,650-0021,中央区,神戸市中央区三宮町1-10-1,34.693287,135.194092,商業施設,対応不可
124,部落解放同盟兵庫県連合会(兵庫人権会館),650-0003,中央区,神戸市中央区山本通4-22-25,34.69457,135.180777,会社・事業所,対応不可
125,神戸地下街株式会社,650-0021,中央区,神戸市中央区三宮町1-10-1,34.691885,135.195068,商業施設,対応不可
126,神戸信用金庫 春日野支店,651-0079,中央区,神戸市中央区東雲通1-1-18,34.701928,135.207271,商業施設,対応不可
127,雲中地域福祉センター,651-0068,中央区,神戸市中央区旗塚通4-4-20,34.70456626,135.2016795,小集会場・公民館・地域福祉センター,対応不可
128,大神ビル,650-0031,中央区,神戸市中央区東町113,34.68927483,135.1951818,商業施設,対応不可
129,諏訪山地域福祉センター,650-0012,中央区,神戸市中央区北長狭通4-9-5,34.690921,135.185768,小集会場・公民館・地域福祉センター,対応不可
130,若菜地域福祉センター,651-0067,中央区,神戸市中央区神若通2-3-7,34.703973,135.204007,小集会場・公民館・地域福祉センター,対応不可
131,(株)大沢観光 ホテルサンルートソプラ,651-0084,中央区,神戸市中央区磯辺通1-1-22,34.690773,135.199912,宿泊施設,対応不可
132,三輪運輸工業株式会社,651-0072,中央区,神戸市中央区脇浜町2-1-16,34.701897,135.216744,会社・事業所,対応不可
133,シオノギ総合サービス株式会社,651-0086,中央区,神戸市中央区磯上通4-1-6,34.692162,135.200477,会社・事業所,対応不可
134,ライオンズマンション神戸栄町通,650-0023,中央区,神戸市中央区栄町通2-3-3,34.68719,135.188065,集合住宅,対応不可
135,サンパル,651-0096,中央区,神戸市中央区雲井通5-3,34.69575,135.197507,商業施設,対応不可
136,(株)神戸プラザホテル,650-0022,中央区,神戸市中央区元町通1-13-12,34.68945,135.188601,宿泊施設,24時間利用可
137,海外移住と文化の交流センター,650-0003,中央区,神戸市中央区山本通3-19-8,34.697466,135.184741,集会場・ホール,対応不可
138,神戸市立葺合保育所,651-0078,中央区,神戸市中央区八雲通1-1-6,34.701377,135.207144,学校・園・児童館,対応不可
139,神戸市立古湊保育所,650-0026,中央区,神戸市中央区古湊通2-3-23,34.678134,135.175032,学校・園・児童館,対応不可
140,神戸市立二宮保育所,651-0093,中央区,神戸市中央区二宮町1-5-2-101,34.699471,135.198871,学校・園・児童館,対応不可
141,神戸婦人同情会籠池児童館,651-0053,中央区,神戸市中央区籠池通2-1-19,34.711438,135.210241,学校・園・児童館,対応不可
142,神戸市立神若保育所,651-0067,中央区,神戸市中央区神若通2-3-7,34.703949,135.203747,学校・園・児童館,対応不可
143,神戸市立宮本保育所,651-0063,中央区,神戸市中央区宮本通1-5-21,34.707615,135.212553,学校・園・児童館,対応不可
144,神戸市立生田保育所,650-0017,中央区,神戸市中央区楠町8-10-2,34.686218,135.174786,学校・園・児童館,対応不可
145,社会福祉法人イエス団二宮児童館,651-0093,中央区,神戸市中央区二宮町1-3-2,34.699808,135.199164,学校・園・児童館,対応不可
146,神戸市役所本庁舎4号館{危機管理センター},650-0033,中央区,神戸市中央区江戸町92番地,34.689664,135.19447,官公庁,対応不可
147,フレグラント野崎,651-0054,中央区,神戸市中央区野崎通2-5-15,34.710373,135.208221,集合住宅,対応不可
148,サザン神戸品川,650-0025,中央区,神戸市中央区相生町4-2-24,34.677293,135.177377,集合住宅,対応不可
149,神戸ヤクルト販売株式会社,651-0056,中央区,神戸市中央区熊内町5-3-8,34.708088,135.200651,会社・事業所,対応不可
150,兵庫県私学総連合会,650-0012,中央区,神戸市中央区北長狭通4丁目3-13,34.690926,135.187508,会社・事業所,対応不可
151,兵庫県土地家屋調査士会,650-0017,中央区,神戸市中央区楠町2-1-1,34.68351,135.176394,会社・事業所,対応不可
152,兵庫県農業共済組合連合会,650-0011,中央区,神戸市中央区下山手通4-15-3,34.692102,135.185857,会社・事業所,対応不可
153,神戸市総合児童センター,650-0044,中央区,神戸市中央区東川崎町1丁目3-1,34.678707,135.181247,学校・園・児童館,対応不可
154,神戸市立東川崎児童館,650-0044,中央区,神戸市中央区東川崎町7丁目4-11,34.675185,135.179456,学校・園・児童館,対応不可
155,神戸地方検察庁,650-0016,中央区,神戸市中央区橘通1-4-1,34.683301,135.177412,官公庁,対応不可
157,神戸市立旗塚児童館,651-0068,中央区,神戸市中央区旗塚通4-4-20,34.70469,135.201989,学校・園・児童館,対応不可
158,神戸海洋気象台,651-0073,中央区,神戸市中央区脇浜海岸通1-4-3,34.697416,135.212783,官公庁,対応不可
159,東急スポーツオアシス,650-0012,中央区,神戸市中央区北長狭通3-1-15,34.691513,135.189605,体育施設・スポーツクラブ,対応不可
160,真澄寺別院真如苑神戸支部,651-0092,中央区,神戸市中央区生田町4-5-14,34.701376,135.195739,その他,対応不可
161,中兵庫信用金庫三宮支店,650-0004,中央区,神戸市中央区中山手通1-25-5,34.696756,135.191266,商業施設,対応不可
162,介護保健施設プリエール,651-0053,中央区,神戸市中央区籠池通5-1-2,34.710076,135.206203,福祉施設,対応不可
163,社会福祉法人種の会なぎさ児童館,651-0073,中央区,神戸市中央区脇浜海岸通3-1-5,34.697006,135.209974,学校・園・児童館,対応不可
164,特別養護老人ホーム山手さくら苑,650-0011,中央区,神戸市中央区下山手通7丁目1-16,34.688252,135.179001,福祉施設,対応不可
166,ホテル北野プラザ六甲荘,650-0002,中央区,神戸市中央区北野町1丁目1-14,34.700304,135.19309,宿泊施設,対応不可
167,神戸東急イン,651-0096,中央区,神戸市中央区雲井通6丁目1-5,34.694636,135.196823,宿泊施設,24時間利用可
168,兵庫県薬剤師会,650-0011,中央区,神戸市中央区下山手通6-4-3,34.689103,135.179267,会社・事業所,対応不可
169,あづま幼稚園,651-0076,中央区,神戸市中央区吾妻通4丁目1-6,34.698134,135.204647,学校・園・児童館,対応不可
170,パレス神戸,650-0011,中央区,神戸市中央区下山手通5-1-16,34.690109,135.184544,宿泊施設,対応不可
171,神戸市立清風幼稚園,650-0004,中央区,神戸市中央区中山手通7丁目25-24,34.688773,135.174152,学校・園・児童館,対応不可
172,神戸市立神戸幼稚園,650-0012,中央区,神戸市中央区北長狭通4-9-17,34.690928,135.185758,学校・園・児童館,対応不可
173,神戸北野ホテル,650-0003,中央区,神戸市中央区山本通3丁目3-20,34.697105,135.18721,宿泊施設,対応不可
174,オリエンタルホテル,650-0034,中央区,神戸市中央区京町25番,34.687901,135.193184,宿泊施設,24時間利用可
175,サンシティビル,651-0096,中央区,神戸市中央区雲井通6-1-15,34.695004,135.196836,商業施設,対応不可
178,ダイワロイネットホテル神戸三宮,651-0087,中央区,神戸市中央区御幸通5-1-6,34.693118,135.198581,宿泊施設,24時間利用可
179,株式会社イナハラ,651-0086,中央区,神戸市中央区磯上通4-1-26,34.692697,135.200635,会社・事業所,対応不可
180,ホテルモントレ神戸,650-0011,中央区,神戸市中央区下山手通2-11-13,34.693543,135.189905,宿泊施設,24時間利用可
182,兵庫県住宅供給公社,650-0011,中央区,神戸市中央区下山手通4-18-2,34.692572,135.183876,官公庁,対応不可
183,KTC中央学院株式会社 神戸キャンパス,650-0002,中央区,神戸市中央区北野町2-6-5,34.699929,135.191552,学校・園・児童館,対応不可
184,ザ・ビー神戸,650-0011,中央区,神戸市中央区下山手通2-11-5,34.693436,135.190074,宿泊施設,24時間利用可
185,阪急電鉄株式会社 春日野道駅,651-0066,中央区,神戸市中央区国香通1-25-6,34.703438,135.206286,公共交通機関,対応不可
186,ライオンズタワー神戸元町,650-0023,中央区,神戸市中央区栄町通3-6-27,34.687032,135.185631,集合住宅,対応不可
187,東横イン神戸三ノ宮I,651-0087,中央区,神戸市中央区御幸通2-2-2,34.694968,135.202045,宿泊施設,24時間利用可
188,東横イン神戸三ノ宮II,651-0096,中央区,神戸市中央区雲井通5-2-2,34.695342,135.197752,宿泊施設,24時間利用可
189,神戸第一高等学校,651-0058,中央区,神戸市中央区葺合町寺ヶ谷1番地,34.709858,135.196708,学校・園・児童館,対応不可
190,株式会社国際健康開発センタービル,651-0073,中央区,神戸市中央区脇浜海岸通1丁目5番1号,34.698919,135.216686,会社・事業所,対応不可
191,新神戸地下街(株) デュオこうべ山の手,650-0025,中央区,神戸市中央区相生町3丁目2番1号,34.679698,135.177237,商業施設,対応不可
192,ワールド三宮ビル,651-0084,中央区,神戸市中央区磯辺通3丁目2-17,34.689952,135.198191,商業施設,対応不可
193,G-SPORTS STUDIO 神戸ハーバー店,650-0044,中央区,神戸市中央区東川崎町1丁目5番1号,34.678263,135.183092,体育施設・スポーツクラブ,対応不可
194,神戸高齢者総合ケアセンター,651-0077,中央区,神戸市中央区日暮通5丁目5-8,34.698304,135.203061,福祉施設,対応不可
195,神戸市役所2号館守衛室,650-8570,中央区,神戸市中央区加納町6丁目5-1,34.690517,135.195263,官公庁,24時間利用可
196,神戸市水道局中部センター,650-0016,中央区,神戸市中央区橘通3丁目4-2,34.681516,135.174013,官公庁,対応不可
197,Dino-Joy(豊栄興産株式会社),650-0021,中央区,神戸市中央区三宮町1丁目7番17号,34.692657,135.194009,商業施設,対応不可
198,コープこうべコープミニ青谷,651-0052,中央区,神戸市中央区中島通2丁目1?14,34.712894,135.20955,商業施設,対応不可
199,コープこうべコープミニ春日野,651-0079,中央区,神戸市中央区東雲通1-6-10,34.703074,135.206656,商業施設,対応不可
200,コープこうべコープミニ熊内,651-0056,中央区,神戸市中央区熊内町3丁目6?8,34.707516,135.199945,商業施設,対応不可
201,エレガリオ神戸,650-0024,中央区,神戸市中央区海岸通6丁目2-14,34.682923,135.182398,福祉施設,対応不可
203,ローソン神戸市役所西店,650-0033,中央区,神戸市中央区江戸町96,34.690111,135.194792,商業施設,24時間利用可
204,兵庫県警葺合警察署,651-0082,中央区,神戸市中央区小野浜町6番,34.689418,135.207615,官公庁,24時間利用可
205,兵庫県警葺合警察署 三宮センター交番,651-0096,中央区,神戸市中央区雲井通8丁目1-3,34.6936,135.194648,官公庁,24時間利用可
206,兵庫県警生田警察署,650-0004,中央区,神戸市中央区中山手通2丁目2-25,34.694877,135.18942,官公庁,24時間利用可
207,兵庫県警生田警察署 元町駅交番,650-0014,中央区,神戸市中央区元町高架通1-100,34.690079,135.188686,官公庁,24時間利用可
208,エルグレース神戸三宮タワーステージ管理組合,651-0086,中央区,神戸市中央区磯上通3丁目1-13,34.692616,135.201148,集合住宅,24時間利用可
209,公益社団法人 兵庫県看護協会,650-0011,中央区,神戸市中央区下山手通5丁目6-24,34.689975,135.182938,医療関連施設,対応不可
210,神戸サンセンタープラザ,650-0021,中央区,神戸市中央区三宮町1丁目9-1,34.691449,135.19208,商業施設,対応不可
211,神戸クリスタルタワー 株式会社カワサキライフコーポレーション,650-0044,中央区,神戸市中央区東川崎町1丁目1-3,34.680724,135.179701,商業施設,対応不可
212,ミント神戸,651-0096,中央区,神戸市中央区雲井通7丁目1-1,34.694372,135.196253,商業施設,24時間利用可
213,神戸サウナビル,650-0011,中央区,神戸市中央区下山手通2丁目2-10,34.692874,135.190476,商業施設,24時間利用可
214,大丸カーポート,650-0036,中央区,兵庫県神戸市中央区明石町30?2,34.687809,135.191456,商業施設,対応不可
215,ミント神戸 献血ルーム,651-0096,中央区,神戸市中央区雲井通7-1-1,34.694477,135.196201,医療関連施設,対応不可
216,三宮センタープラザ 献血ルーム,650-0021,中央区,神戸市中央区三宮町2-11-1 センタープラザ西館3階,34.691199,135.191204,医療関連施設,対応不可
217,神戸市歯科医師会附属歯科診療所,650-0021,中央区,神戸市中央区三宮町2-11-1 センタープラザ―西館5階509号室,34.691199,135.191204,医療関連施設,対応不可
218,ジークレフ新神戸タワー,651-0056,中央区,神戸市中央区熊内町7丁目6-1,34.706032,135.197038,集合住宅,24時間利用可
219,神戸市立たちばな保育所,6500017,中央区,神戸市中央区楠町1丁目12-1,34.685461,135.176016,学校・園・児童館,
220,社会福祉法人成晃会 神戸海岸特養ケアセンター,651-0084,中央区,神戸市中央区磯辺通1-1-28,34.69087,135.200314,福祉施設,
221,株式会社 朝日ビルディング神戸支店,650-0035,中央区,神戸市中央区浪花町59,34.689419,135.192467,商業施設,
222,つるてん西店(有限会社 赤野),6500022,中央区,神戸市中央区元町通5丁目7-12,34.685578,135.181596,商業施設,
223,株式会社ラウンドワン三宮駅前店,651-0088,中央区,神戸市中央区小野柄通6-1-17,34.693933,135.197375,商業施設,
224,プロメナ神戸,650-0044,中央区,神戸市中央区東川崎町1丁目8-1,34.679748,135.181002,商業施設,24時間利用可
225,元町六丁目商店街振興組合,6500022,中央区,神戸市中央区元町通6丁目7-2,34.6839,135.179949,商業施設,24時間利用可
226,ファミリーマート加納町4丁目店,650-0001,中央区,神戸市中央区加納町4丁目6-5,34.69535,135.19284,商業施設,24時間利用可
227,神鋼不動産 株式会社,651-0072,中央区,神戸市中央区脇浜町2丁目8-20,34.701346,135.212152,会社・事業所,対応不可
228,神戸市立相楽園,650-0004,中央区,神戸市中央区中山手通5-3-1,34.692536,135.182567,公園・文教施設,対応不可
1,神戸高速鉄道(株) 大開駅,652-0802,兵庫区,神戸市兵庫区水木通7丁目,34.671757,135.162539,公共交通機関,対応不可
2,神戸高速鉄道(株) 新開地駅,652-0811,兵庫区,神戸市兵庫区新開地2丁目,34.676067,135.169451,公共交通機関,対応不可
3,神戸信用金庫 中央支店,652-0802,兵庫区,神戸市兵庫区水木通1-1-8,34.67656,135.169525,商業施設,対応不可
4,神戸ウイングスタジアム(株),652-0855,兵庫区,神戸市兵庫区御崎町1-2-2,34.657063,135.169576,体育施設・スポーツクラブ,対応不可
5,寄神建設(株),652-0831,兵庫区,神戸市兵庫区七宮町2丁目1番1号,34.670361,135.175774,会社・事業所,対応不可
6,兵庫県柔道整復師会館,652-0804,兵庫区,神戸市兵庫区塚本通2丁目2-25,34.673594,135.168097,集会場・ホール,対応可能
7,神戸市営地下鉄 湊川公園駅,652-0047,兵庫区,神戸市兵庫区下沢通1丁目,34.679091,135.16679,公共交通機関,対応不可
8,神戸市営地下鉄 上沢駅,652-0047,兵庫区,神戸市兵庫区下沢通8丁目,34.673478,135.158792,公共交通機関,対応不可
9,神戸市営地下鉄 御崎公園駅,652-0875,兵庫区,神戸市兵庫区浜中町1丁目,34.654575,135.164921,公共交通機関,対応不可
10,兵庫区役所,652-0032,兵庫区,神戸市兵庫区荒田町1丁目21-1,34.680691,135.165363,官公庁,24時間利用可
11,神戸市立兵庫図書館,652-0897,兵庫区,神戸市兵庫区駅南通5丁目1番1号,34.668104,135.16566,公園・文教施設,対応不可
12,楠高校,652-0045,兵庫区,神戸市兵庫区松本通1-1-1,34.679601,135.165076,学校・園・児童館,対応不可
13,神港高校,652-0043,兵庫区,神戸市兵庫区会下山町3丁目16?1,34.67545,135.157138,学校・園・児童館,対応不可
14,須佐野中学校,652-0881,兵庫区,神戸市兵庫区松原通1-1-44,34.664056,135.169487,学校・園・児童館,対応不可
15,兵庫中学校,652-0816,兵庫区,神戸市兵庫区永沢町4-3-36,34.673377,135.170123,学校・園・児童館,対応不可
16,兵庫中学校北分校,652-0816,兵庫区,神戸市兵庫区永沢町4-3-18,34.6731,135.169435,学校・園・児童館,対応不可
17,湊川中学校,652-0045,兵庫区,神戸市兵庫区松本通1-1-1,34.679647,135.165022,学校・園・児童館,対応不可
19,夢野中学校,652-0057,兵庫区,神戸市兵庫区鵯越町10番1号,34.681976,135.153295,学校・園・児童館,対応不可
20,吉田中学校,652-0872,兵庫区,神戸市兵庫区吉田町1-5-1,34.652363,135.170818,学校・園・児童館,対応不可
21,A-TIME本店,652-0811,兵庫区,神戸市兵庫区新開地3-4-17,34.676768,135.171302,商業施設,対応不可
22,A-TIME新開地店,652-0811,兵庫区,神戸市兵庫区新開地2-6-8,34.678075,135.169665,商業施設,対応不可
23,兵庫勤労市民センター,652-0805,兵庫区,神戸市兵庫区羽坂通4-1-1,34.669058,135.165032,集会場・ホール,対応不可
24,(株)東販神戸営業所,652-0896,兵庫区,神戸市兵庫区須佐野通1-2-3,34.665049,135.169553,その他,対応不可
25,神戸市営地下鉄 和田岬駅,652-0862,兵庫区,神戸市兵庫区上庄通2丁目,34.658269,135.176351,公共交通機関,対応不可
26,神戸市営地下鉄 中央市場前駅,652-0844,兵庫区,神戸市兵庫区中之島1丁目,34.666058,135.175854,公共交通機関,対応不可
27,ゴールドラッシュ,652-0042,兵庫区,神戸市兵庫区東山町2丁目3-18,34.681915,135.163763,商業施設,対応不可
28,株式会社 ヒョウベイ,652-0852,兵庫区,神戸市兵庫区御崎本町4丁目2-7,34.659849,135.168468,会社・事業所,対応不可
32,神戸市立小河保育所,652-0895,兵庫区,神戸市兵庫区小河通3丁目2-14,34.665745,135.168111,学校・園・児童館,対応不可
33,神戸市立平野保育所,652-0015,兵庫区,神戸市兵庫区下祇園町6?22,34.68782,135.169719,学校・園・児童館,対応不可
34,夢野の丘小学校,652-0042,兵庫区,神戸市兵庫区東山町4丁目20,34.681847,135.160904,学校・園・児童館,対応不可
35,神戸市立夢野児童館,652-0041,兵庫区,神戸市兵庫区湊川町7丁目6-5,34.683057,135.158648,学校・園・児童館,対応不可
36,会下山小学校,652-0046,兵庫区,神戸市兵庫区上沢通1丁目3-26,34.679363,135.165458,学校・園・児童館,対応不可
37,兵庫大開小学校,652-0803,兵庫区,神戸市兵庫区大開通4丁目1-39,34.673267,135.167097,学校・園・児童館,対応不可
38,水木小学校,652-0802,兵庫区,神戸市兵庫区水木通9丁目1-8,34.67061,135.159707,学校・園・児童館,対応不可
39,和田岬小学校,652-0863,兵庫区,神戸市兵庫区和田宮通6丁目1-18,34.655059,135.175606,学校・園・児童館,対応不可
40,明親小学校,652-0896,兵庫区,神戸市兵庫区須佐野通4丁目1-19,34.665139,135.165918,学校・園・児童館,対応不可
41,浜山小学校,652-0851,兵庫区,神戸市兵庫区材木町4丁目2,34.657814,135.166974,学校・園・児童館,対応不可
42,山幸興業 三菱電機詰所,652-0854,兵庫区,神戸市兵庫区和田崎町1丁目1-2,34.651115,135.178434,会社・事業所,対応不可
43,山幸興業 三菱重工詰所,652-0854,兵庫区,神戸市兵庫区和田崎町1丁目1-1,34.656641,135.178027,会社・事業所,対応不可
44,播州信用金庫兵庫支店,652-0801,兵庫区,神戸市兵庫区中道通5丁目2番7号,34.674363,135.163367,商業施設,対応不可
45,播州信用金庫平野支店,652-0008,兵庫区,神戸市兵庫区上祇園町3番1号,34.691022,135.168343,商業施設,対応不可
46,三井住友銀行兵庫支店,652-0812,兵庫区,神戸市兵庫区湊町4-2-10,34.676014,135.170584,商業施設,対応不可
47,三井住友銀行湊川支店,652-0042,兵庫区,神戸市兵庫区東山町2-2-6,34.68154,135.163775,商業施設,対応不可
49,神戸新開地ビル,652-0811,兵庫区,神戸市兵庫区新開地4丁目6-19,34.676345,135.172738,商業施設,対応不可
51,西日本旅客鉄道(株)兵庫駅,652-0897,兵庫区,神戸市兵庫区駅南通5丁目3-7,34.668445,135.164784,公共交通機関,対応不可
53,川崎重工業兵庫工場,652-0884,兵庫区,神戸市兵庫区和田山通2丁目1-18,34.659065,135.161114,会社・事業所,対応不可
54,神戸電鉄 湊川駅,652-0032,兵庫区,神戸市兵庫区荒田町1丁目20-3,34.679537,135.165997,公共交通機関,対応不可
55,社会福祉法人 光有会,652-0063,兵庫区,神戸市兵庫区夢野町4丁目3-13,34.683903,135.156264,福祉施設,対応不可
56,神戸信用金庫 兵庫支店,652-0806,兵庫区,神戸市兵庫区西柳原町5-7,34.669028,135.168349,商業施設,対応不可
57,神戸信用金庫 御崎支店,652-0875,兵庫区,神戸市兵庫区浜中町1丁目6-2,34.655124,135.165165,商業施設,対応不可
58,浜山地域福祉センター,652-0855,兵庫区,神戸市兵庫区御崎町1丁目2-4,34.655661,135.16813,小集会場・公民館・地域福祉センター,対応不可
59,医療法人社団 せんだん会 みどり苑,652-0803,兵庫区,神戸市兵庫区大開通2丁目2-1,34.674989,135.16924,福祉施設,対応不可
60,ライオンズヴィアーレ,652-0047,兵庫区,神戸市兵庫区下沢通5丁目4-14,34.675212,135.161698,集合住宅,対応不可
61,川池地域福祉センター,652-0045,兵庫区,神戸市兵庫区松本通5丁目2-6,34.676956,135.160589,小集会場・公民館・地域福祉センター,対応不可
62,ひよどり地域福祉センター,652-0058,兵庫区,神戸市兵庫区菊水町10丁目12-1,34.680995,135.153459,小集会場・公民館・地域福祉センター,対応不可
63,三菱電機 神戸製作所,652-0854,兵庫区,神戸市兵庫区和田崎町1丁目1-2,34.651166,135.178439,会社・事業所,対応不可
64,神戸市環境局 兵庫事業所,652-0807,兵庫区,神戸市兵庫区浜崎通2-23,34.66779,135.166779,官公庁,対応不可
66,新開地まちづくりNPO,652-0811,兵庫区,神戸市兵庫区新開地3丁目3-11,34.677109,135.171465,会社・事業所,対応不可
68,カトリック兵庫教会,652-0804,兵庫区,神戸市兵庫区塚本通4丁目4-4,34.672189,135.166639,集会場・ホール,対応不可
69,湊山地域福祉センター,652-0062,兵庫区,神戸市兵庫区大同町2丁目2-8,34.687585,135.162771,小集会場・公民館・地域福祉センター,対応不可
71,神戸市立羽坂保育所,652-0805,兵庫区,神戸市兵庫区羽坂通4丁目1-1,34.669285,135.165637,学校・園・児童館,対応不可
72,社会福祉法人 海光園,652-0058,兵庫区,神戸市兵庫区菊水町10丁目40,34.679845,135.154502,福祉施設,対応不可
73,神戸市立松原児童館,652-0881,兵庫区,神戸市兵庫区松原通4丁目2-27,34.664513,135.16622,学校・園・児童館,対応不可
74,神戸市立中道児童館,652-0801,兵庫区,神戸市兵庫区中道通4丁目2番9号,34.67482,135.1641,学校・園・児童館,対応不可
75,神戸市立兵庫児童館,652-0898,兵庫区,神戸市兵庫区駅前通4丁目3-6,34.66744,135.159171,学校・園・児童館,対応不可
76,神戸市立湊川児童館,652-0042,兵庫区,神戸市兵庫区東山町4丁目-20-1,34.68185,135.162356,学校・園・児童館,対応不可
77,神戸市建設局中部建設事務所,652-0041,兵庫区,神戸市兵庫区湊川町2丁目1-12,34.684157,135.163605,官公庁,対応不可
78,神戸福生会 高齢者ケアセンターひょうご,652-0051,兵庫区,神戸市兵庫区里山町1-48,34.692522,135.141078,福祉施設,対応不可
79,浄土真宗本願寺派西法尊光寺,652-0016,兵庫区,神戸市兵庫区馬場町10-1,34.688221,135.171926,その他,対応不可
80,神戸市立兵庫くすのき幼稚園,652-0816,兵庫区,神戸市兵庫区永沢町3丁目7-12,34.67404,135.170924,学校・園・児童館,対応不可
82,明親地域福祉センター,652-0896,兵庫区,神戸市兵庫区須佐野通4-1-42,34.6648,135.166232,小集会場・公民館・地域福祉センター,対応不可
83,株式会社 神戸マツダ,652-0892,兵庫区,神戸市兵庫区東柳原町3-10,34.668638,135.170333,会社・事業所,対応不可
84,神戸市立中部在宅障害者福祉センター,652-0897,兵庫区,神戸市兵庫区駅南通5丁目1-1,34.668159,135.165871,福祉施設,対応不可
85,神戸市中央卸売市場,652-0844,兵庫区,神戸市兵庫区中之島1丁目1-4,34.665704,135.176149,会社・事業所,対応不可
86,生活協同組合コープこうべ コープ兵庫,652-0897,兵庫区,神戸市兵庫区駅南通5丁目1-2-100,34.667289,135.164572,商業施設,対応不可
87,神戸市立雪御所児童館,652-0031,兵庫区,神戸市兵庫区雪御所町1-8,34.689401,135.165734,学校・園・児童館,対応不可
88,大同保育園,652-0062,兵庫区,神戸市兵庫区大同町2丁目2-16,34.687889,135.162832,学校・園・児童館,対応不可
89,健康ライフプラザ,652-0897,兵庫区,神戸市兵庫区駅南通5丁目1-2-300,34.667211,135.164158,医療関連施設,対応不可
90,東横イン 神戸湊川公園,652-0036,兵庫区,神戸市兵庫区福原町32-13,34.680822,135.16956,宿泊施設,24時間利用可
92,みなと幼稚園,652-0032,兵庫区,神戸市兵庫区荒田町3丁目20-4,34.684493,135.167484,学校・園・児童館,対応不可
93,運南保育所,652-0875,兵庫区,神戸市兵庫区浜中町1丁目17-11,34.656196,135.164827,学校・園・児童館,対応不可
94,宗教法人光明寺 ルンビニー愛児園,652-0801,兵庫区,神戸市兵庫区中道通9丁目1-8,34.671033,135.158996,学校・園・児童館,対応不可
95,社会福祉法人兵庫保育園,652-0823,兵庫区,神戸市兵庫区東出町2丁目12-9,34.673922,135.180262,学校・園・児童館,対応不可
96,パーマリィイン千鳥山荘,652-0022,兵庫区,神戸市兵庫区千鳥町3-5-1,34.691003,135.160695,福祉施設,対応不可
97,水道局技術部奥平野浄水場,652-0004,兵庫区,神戸市兵庫区楠谷町37番1号,34.693635,135.173772,官公庁,対応不可
98,熊野地域福祉センター,652-0064,兵庫区,神戸市兵庫区熊野町3丁目12-18,34.686516,135.158346,小集会場・公民館・地域福祉センター,対応不可
99,エクセルスカイ御崎公園,652-0872,兵庫区,神戸市兵庫区吉田町2丁目35番6号,34.65447,135.168246,集合住宅,対応不可
100,関西電力 神戸電力所,652-0894,兵庫区,神戸市兵庫区入江通1丁目2-15,34.667169,135.169314,会社・事業所,対応不可
101,神戸アートビレッジセンター,652-0811,兵庫区,神戸市兵庫区新開地5-3-14,34.676116,135.173701,公園・文教施設,対応不可
102,キャナルビスタ アーバンコンフォート,652-0846,兵庫区,神戸市兵庫区出在家町2丁目6番30号,34.662889,135.173481,集合住宅,24時間利用可
103,神戸市道路公社 天王谷料金所 (トールウェイ(株)),652-0002,兵庫区,神戸市兵庫区平野町天王谷字西服山354-19,34.699411,135.165575,会社・事業所,対応不可
104,ものづくり復興工場,652-0884,兵庫区,神戸市兵庫区和田山通1丁目2-25,34.659047,135.163564,会社・事業所,24時間利用可
105,日通トランスポート(株)神戸支店,652-0874,兵庫区,神戸市兵庫区高松町2-32,34.651952,135.160182,会社・事業所,対応不可
106,荒田地域福祉センター,652-0032,兵庫区,神戸市兵庫区荒田町2丁目19番1号,34.681575,135.166875,小集会場・公民館・地域福祉センター,対応不可
107,大鉄工業(株)神戸出張所,652-0897,兵庫区,神戸市兵庫区駅南通5丁目5番2号,34.664975,135.159919,会社・事業所,対応不可
108,不二製油株式会社,652-0875,兵庫区,神戸市兵庫区浜中町2丁目18-24,34.654448,135.161449,会社・事業所,24時間利用可
109,アサヒカプセル&サウナ,652-0811,兵庫区,神戸市兵庫区新開地3丁目4-11,34.676536,135.171,入浴施設,対応不可
110,中央水環境センター・鈴蘭台処理場,652-0001,兵庫区,神戸市兵庫区烏原町譲原,34.698402,135.148438,官公庁,対応不可
111,株式会社ラウンドワン,652-0811,兵庫区,神戸市兵庫区新開地2-3-4,34.67721,135.170317,商業施設,対応不可
112,神戸市立松原保育所,652-0881,兵庫区,神戸市兵庫区松原通4丁目2-27,34.664513,135.166224,学校・園・児童館,対応不可
113,神戸市立友生支援学校,652-0063,兵庫区,神戸市兵庫区夢野町1丁目1,34.686281,135.160669,学校・園・児童館,対応不可
114,社会福祉法人 愛信学園,652-0016,兵庫区,神戸市兵庫区馬場町7番14号,34.688516,135.171097,福祉施設,24時間利用可
115,株式会社 築港,652-0866,兵庫区,神戸市兵庫区遠矢浜町5-27,34.65075,135.170078,会社・事業所,対応不可
116,神戸少年鑑別所,652-0015,兵庫区,神戸市兵庫区下祇園町40-7,34.688032,135.169404,官公庁,24時間利用可
117,奥平野財産区管理会 平野会館,652-0006,兵庫区,神戸市兵庫区神田町11番10号,34.691087,135.170551,小集会場・公民館・地域福祉センター,対応不可
118,兵庫県立兵庫工業高校,652-0863,兵庫区,神戸市兵庫区和田宮通2丁目1-63,34.660401,135.17355,学校・園・児童館,対応不可
119,コープこうべ コープミニ荒田店,652-0032,兵庫区,神戸市兵庫区荒田町3丁目28番3号,34.684015,135.166848,商業施設,対応不可
120,コープこうべ コープミニ石井店,652-0061,兵庫区,神戸市兵庫区石井町8丁目2番1号,34.688582,135.160369,商業施設,対応不可
121,コープこうべ コープミニ御崎店,652-0875,兵庫区,神戸市兵庫区浜中町1丁目1-1,34.655101,135.166251,商業施設,対応不可
122,兵庫県立神戸工業高等学校,652-0863,兵庫区,神戸市兵庫区和田宮通2-1-63,34.660226,135.173369,学校・園・児童館,対応不可
123,社会福祉法人宝地院福祉会 宝地院保育園,652-0032,兵庫区,神戸市兵庫区荒田町3丁目17-1,34.684657,135.168052,学校・園・児童館,対応不可
124,中道地域福祉センター,652-0801,兵庫区,神戸市兵庫区中道通4丁目2番8号,34.674909,135.164165,小集会場・公民館・地域福祉センター,対応不可
125,菊水地域福祉センター,652-0058,兵庫区,神戸市兵庫区菊水町2丁目1-2,34.685787,135.163652,小集会場・公民館・地域福祉センター,対応不可
126,市立御崎児童館,652-0855,兵庫区,神戸市兵庫区御崎町1丁目3-2,34.657636,135.167668,学校・園・児童館,対応不可
127,岡工務店,652-0802,兵庫区,神戸市兵庫区水木通4丁目1-1,34.674202,135.16569,会社・事業所,対応不可
128,松村石油株式会社神戸工場,652-0883,兵庫区,神戸市兵庫区明和通2丁目2番31号,34.6622,135.166983,会社・事業所,24時間利用可
129,福原自治会館,652-0036,兵庫区,神戸市兵庫区福原町24-9,34.679626,135.168957,小集会場・公民館・地域福祉センター,対応不可
130,兵庫大開地域福祉センター,652-0816,兵庫区,神戸市兵庫区永沢町4丁目4-28,34.674261,135.169968,小集会場・公民館・地域福祉センター,対応不可
131,ゆりかご保育園,652-0054,兵庫区,神戸市兵庫区氷室町2丁目14番1号,34.686713,135.157291,学校・園・児童館,対応不可
132,たちえ幼稚園,652-0058,兵庫区,神戸市兵庫区菊水町10-39-25,34.680746,135.15323,学校・園・児童館,対応不可
134,兵庫県立健康生活科学研究所 健康科学研究センター,652-0032,兵庫区,神戸市兵庫区荒田町2丁目1-29,34.683393,135.170146,医療関連施設,対応不可
135,神戸市立心身障害福祉センター,652-0802,兵庫区,神戸市兵庫区水木通2-1-10,34.675188,135.167116,福祉施設,対応不可
136,神戸学院大学附属高等学校,652-0043,兵庫区,神戸市兵庫区会下山町1丁目7-1,34.679582,135.160118,学校・園・児童館,対応不可
137,入江地域福祉センター,652-0822,兵庫区,神戸市兵庫区西出町1丁目19-3号,34.672654,135.17771,小集会場・公民館・地域福祉センター,対応不可
138,石井幼稚園,652-0023,兵庫区,神戸市兵庫区都由乃町1丁目1-11,34.690839,135.162279,学校・園・児童館,対応不可
139,公益財団法人 兵庫県健康財団 保健検診センター,652-0032,兵庫区,神戸市兵庫区荒田町2丁目1-12,34.683372,135.169504,医療関連施設,対応不可
140,学校法人米田学園 神港みどり幼稚園,652-0043,兵庫区,神戸市兵庫区会下山町2丁目5-32,34.677326,135.160028,学校・園・児童館,対応不可
141,グループホーム たのしい家湊川,652-0041,兵庫区,神戸市兵庫区湊川町9丁目12-7,34.681561,135.157335,福祉施設,24時間利用可
142,水木地域福祉センター,652-0898,兵庫区,神戸市兵庫区駅前通3丁目2-26 駅前住宅内,34.668222,135.160427,小集会場・公民館・地域福祉センター,対応不可
143,念法眞教 神戸念法寺,652-0898,兵庫区,神戸市兵庫区駅前通4丁目1-78,34.666883,135.161256,その他,対応不可
144,西橘自治会館,652-0034,兵庫区,神戸市兵庫区西橘通1丁目3-11,34.680429,135.171766,小集会場・公民館・地域福祉センター,対応不可
145,夢野地域福祉センター,652-0041,兵庫区,神戸市兵庫区湊川町7丁目6-5,34.682994,135.158509,小集会場・公民館・地域福祉センター,対応不可
146,特別養護老人ホーム パーマリィ・イン中道,652-0801,兵庫区,神戸市兵庫区中道通6丁目1-33,34.673754,135.162947,福祉施設,24時間利用可
147,本願寺派湊川保育園,652-0041,兵庫区,神戸市兵庫区湊川町9丁目2-16,34.680846,135.158542,学校・園・児童館,対応不可
148,和田岬地域福祉センター,652-0871,兵庫区,神戸市兵庫区浜山通1丁目1-5,34.657801,135.171404,小集会場・公民館・地域福祉センター,対応不可
149,グループホーム たのしい家大倉山,652-0015,兵庫区,神戸市兵庫区下祇園町32-21,34.68937,135.168529,福祉施設,24時間利用可
150,医療法人社団大有会 介護老人保健施設ドリームヒルズ滝山,652-0056,兵庫区,神戸市兵庫区滝山町7-2,34.683892,135.152403,福祉施設,対応不可
151,兵庫県警兵庫警察署,652-0047,兵庫区,神戸市兵庫区下沢通3丁目1-28,34.676454,135.165394,官公庁,24時間利用可
152,兵庫県警兵庫警察署御崎公園交番,652-0855,兵庫区,神戸市兵庫区御崎町1丁目1-2,34.655144,135.169551,官公庁,24時間利用可
153,神戸夢野幼稚園,652-0042,兵庫区,神戸市兵庫区東山町4丁目20番,34.681975,135.161958,学校・園・児童館,対応不可
1,有馬温泉観光総合案内所,651-1401,北区,神戸市北区有馬町790番地3,34.797783,135.247773,商業施設,対応不可
2,有馬本温泉 金の湯,651-1401,北区,神戸市北区有馬町833,34.796732,135.247889,入浴施設,対応不可
3,神戸電鉄(株) 鈴蘭台駅,651-1111,北区,神戸市北区鈴蘭台北町1丁目7番17号,34.723646,135.145965,公共交通機関,対応不可
4,ひと接骨院,651-1132,北区,神戸市北区南五葉1-4-22,34.724794,135.134727,医療関連施設,対応不可
5,デイサービスセンターまほしの里,651-1242,北区,神戸市北区有野町唐櫃291-1,34.795169,135.219809,福祉施設,対応不可
6,コアキタマチショッピングセンター,651-1233,北区,神戸市北区日の峰2-6-1,34.756202,135.143808,商業施設,対応不可
7,(財)こうべ市民福祉振興協会 温泉健康センター(しあわせの村内),651-1102,北区,神戸市北区山田町下谷上字中一里山14番地の1,34.708502,135.115467,入浴施設,対応不可
8,北区役所,651-1114,北区,神戸市北区鈴蘭台西町1丁目25番1号,34.726967,135.144329,官公庁,24時間利用可
9,北神出張所,651-1302,北区,神戸市北区藤原台中町1丁目2番1号,34.821045,135.22189,官公庁,対応不可
10,(株)有馬ビューホテル,651-1401,北区,神戸市北区有馬町池の尻292-2,34.797801,135.250659,宿泊施設,24時間利用可
11,(株)有馬ビューホテル 太閤の湯,651-1401,北区,神戸市北区有馬町池の尻292-2,34.797762,135.251374,宿泊施設,24時間利用可
12,(株)中の坊 有馬グランドホテル,651-1401,北区,神戸市北区有馬町1304-1,34.797937,135.243935,宿泊施設,対応不可
13,北区民センター,651-1114,北区,神戸市北区鈴蘭台西町1丁目22番1号,34.727059,135.143983,集会場・ホール,対応不可
14,AXTOS鈴蘭台店,651-1147,北区,神戸市北区松宮台2丁目27-8,34.738058,135.144002,体育施設・スポーツクラブ,対応不可
15,(財)こうべ市民福祉振興協会 神戸市シルバーカレッジ,651-1102,北区,神戸市北区山田町下谷上字中一里山14番地の1 しあわせの村内,34.702665,135.117441,学校・園・児童館,対応不可
16,神戸拘置所,651-1124,北区,神戸市北区ひよどり北町2-1,34.706111,135.120007,官公庁,対応不可
17,神戸市民防災総合センター,651-1123,北区,神戸市北区ひよどり台北町3-1,34.707911,135.119902,官公庁,対応不可
18,有野北中学校,651-1301,北区,神戸市北区藤原台北町6-4-1,34.829764,135.223335,学校・園・児童館,対応不可
19,有野中学校,651-1302,北区,神戸市北区藤原台中町5-2-1,34.821516,135.214193,学校・園・児童館,対応不可
20,有馬中学校,651-1321,北区,神戸市北区有野台7-18,34.809504,135.226857,学校・園・児童館,対応不可
21,淡河中学校,651-1613,北区,神戸市北区淡河町行原字中沢179-2,34.819533,135.124205,学校・園・児童館,対応不可
22,大池中学校,651-1201,北区,神戸市北区西大池2-24-3,34.772162,135.196042,学校・園・児童館,対応不可
23,大沢中学校,651-1524,北区,神戸市北区大沢町中大沢976,34.855201,135.165369,学校・園・児童館,対応不可
24,大原中学校,651-1222,北区,神戸市北区大原1-19,34.745781,135.143842,学校・園・児童館,対応不可
25,小部中学校,651-1101,北区,神戸市北区山田町小部字向井谷23-1,34.730505,135.154856,学校・園・児童館,対応不可
26,小部東小学校,651-1111,北区,神戸市北区鈴蘭台北町7-11-22,34.727875,135.15719,学校・園・児童館,対応不可
27,唐櫃小学校,651-1332,北区,神戸市北区唐櫃台2-39-1,34.789828,135.214196,学校・園・児童館,対応不可
28,唐櫃中学校,651-1332,北区,神戸市北区唐櫃台4-36-1,34.784777,135.211584,学校・園・児童館,対応不可
29,北神戸中学校,651-1513,北区,神戸市北区鹿の子台北町2-8-1,34.862855,135.222975,学校・園・児童館,対応不可
30,広陵中学校,651-1211,北区,神戸市北区小倉台5-1,34.74956,135.169648,学校・園・児童館,対応不可
31,甲緑小学校,651-1221,北区,神戸市北区緑町7-12-10,34.744869,135.150142,学校・園・児童館,対応不可
32,桜の宮中学校,651-1144,北区,神戸市北区大脇台6-1,34.738078,135.160158,学校・園・児童館,対応不可
33,鹿の子台小学校,651-1513,北区,神戸市北区鹿の子台北町6-34-1,34.861017,135.218191,学校・園・児童館,対応不可
34,鈴蘭台中学校,651-1131,北区,神戸市北区北五葉2-10-32,34.72933,135.132766,学校・園・児童館,対応不可
35,星和台中学校,651-1121,北区,神戸市北区星和台1-6,34.719236,135.128362,学校・園・児童館,対応不可
36,西山小学校,651-1305,北区,神戸市北区西山1-67,34.838479,135.218442,学校・園・児童館,対応不可
37,八多中学校,651-1343,北区,神戸市北区八多町附物876,34.822157,135.195486,学校・園・児童館,対応不可
38,神戸市立兵庫商業高等学校,651-1111,北区,神戸市北区鈴蘭台北町1-24-1,34.727574,135.147661,学校・園・児童館,対応不可
39,鵯台中学校,651-1123,北区,神戸市北区ひよどり台1-15-31,34.693964,135.119201,学校・園・児童館,対応不可
40,山田中学校,651-1243,北区,神戸市北区山田町下谷上宮前15,34.762787,135.157002,学校・園・児童館,対応不可
41,神戸市立北図書館,651-1114,北区,神戸市北区鈴蘭台西町1-22-1,34.727047,135.143866,公園・文教施設,対応不可
42,神戸市立北図書館北神分館,651-1302,北区,神戸市北区藤原台中町1-2-1,34.820927,135.221849,公園・文教施設,対応不可
43,フルーツフラワーパーク,651-1522,北区,神戸市北区大沢町上大沢2150,34.845864,135.191701,商業施設,対応不可
44,兵衛旅館,651-1401,北区,神戸市北区有馬町1904,34.79821,135.248677,宿泊施設,24時間利用可
45,武庫川学院北摂キャンパス丹嶺学苑,651-1512,北区,神戸市北区長尾町上津4553-1,34.886872,135.17313,学校・園・児童館,対応不可
46,神戸北高等学校,651-1332,北区,神戸市北区唐櫃台2-41-1,34.788949,135.216459,学校・園・児童館,対応不可
47,兵庫六甲農業協同組合本店,651-1313,北区,神戸市北区有野中町2-12-13,34.82651,135.226076,商業施設,対応不可
48,兵庫六甲農業協同組合農協市場館農野花,651-1313,北区,神戸市北区有野中町3-1-2,34.82744,135.225791,商業施設,対応不可
49,兵庫六甲農業協同組合有野支店,651-1313,北区,神戸市北区有野中町1-4-20,34.819201,135.222223,商業施設,対応不可
50,兵庫六甲農業協同組合小部支店,651-1112,北区,神戸市北区鈴蘭台東町4-5-26,34.723658,135.147403,商業施設,対応不可
52,神戸甲北高等学校,651-1144,北区,神戸市北区大脇台9-1,34.739282,135.162612,学校・園・児童館,対応不可
53,(株)有馬館 有馬ロイヤルホテル,651-1401,北区,神戸市北区有馬町987,34.79559,135.247401,宿泊施設,対応不可
54,株式会社タイセイ 六甲国際ゴルフ倶楽部,651-1263,北区,神戸市北区山田町西下字押部道15,34.7572,135.102018,体育施設・スポーツクラブ,対応不可
55,県立神戸特別支援学校,651-1144,北区,神戸市北区大脇台10番1号,34.739023,135.164245,学校・園・児童館,対応不可
56,神鉄兵庫ゴルフ株式会社兵庫カンツリー倶楽部,651-1252,北区,神戸市北区山田町原野鹿見山,34.783977,135.162363,体育施設・スポーツクラブ,対応不可
57,(株)関電アメニックス武庫ノ台ゴルフコース,651-1503,北区,神戸市北区道場町生野字北山1176の16番地,34.875878,135.259644,体育施設・スポーツクラブ,対応不可
58,有馬小学校,651-1401,北区,神戸市北区有馬町1274,34.801109,135.248507,学校・園・児童館,対応不可
59,有野小学校,651-1302,北区,神戸市北区藤原台中町3丁目17-1,34.820675,135.217961,学校・園・児童館,対応不可
60,藤原台小学校,651-1303,北区,神戸市北区藤原台南町1丁目13-1,34.812914,135.207917,学校・園・児童館,対応不可
61,有野台小学校,651-1321,北区,神戸市北区有野台2丁目8,34.812263,135.225807,学校・園・児童館,対応不可
62,有野東小学校,651-1321,北区,神戸市北区有野台5丁目2,34.813813,135.229724,学校・園・児童館,対応不可
63,大池小学校,651-1201,北区,神戸市北区西大池2丁目24-1,34.772344,135.198375,学校・園・児童館,対応不可
64,花山小学校,651-1204,北区,神戸市北区花山東町3-1,34.765231,135.185144,学校・園・児童館,対応不可
65,谷上小学校,651-1243,北区,神戸市北区山田町下谷上中上16,34.763341,135.170281,学校・園・児童館,対応不可
66,箕谷小学校,651-1232,北区,神戸市北区松が枝町1丁目11,34.758434,135.149721,学校・園・児童館,対応不可
67,桂木小学校,651-1223,北区,神戸市北区桂木1丁目2-5,34.747614,135.145539,学校・園・児童館,対応不可
68,広陵小学校,651-1212,北区,神戸市北区筑紫が丘2丁目9-1,34.748522,135.165392,学校・園・児童館,対応不可
69,筑紫が丘小学校,651-1212,北区,神戸市北区筑紫が丘3丁目4-1,34.744223,135.162907,学校・園・児童館,対応不可
70,桜の宮小学校,651-1143,北区,神戸市北区若葉台1丁目3番15号,34.740243,135.154195,学校・園・児童館,対応不可
71,山田小学校,651-1253,北区,神戸市北区山田町中字長尾サ1番地,34.765571,135.131763,学校・園・児童館,対応不可
72,小部小学校,651-1111,北区,神戸市北区鈴蘭台北町3丁目8番1号,34.729569,135.148138,学校・園・児童館,対応不可
73,泉台小学校,651-1141,北区,神戸市北区泉台3丁目1番地の4,34.73838,135.137911,学校・園・児童館,対応不可
74,鈴蘭台小学校,651-1113,北区,神戸市北区鈴蘭台南町2丁目14-24,34.725186,135.141234,学校・園・児童館,対応不可
75,北五葉小学校,651-1131,北区,神戸市北区北五葉3丁目7番1号,34.730529,135.136904,学校・園・児童館,対応不可
76,南五葉小学校,651-1132,北区,神戸市北区南五葉3丁目1番1号,34.721806,135.133214,学校・園・児童館,対応不可
77,君影小学校,651-1122,北区,神戸市北区君影町1丁目11-13,34.714363,135.136476,学校・園・児童館,対応不可
78,星和台小学校,651-1121,北区,神戸市北区星和台6-21,34.72396,135.123965,学校・園・児童館,対応不可
79,ひよどり台小学校,651-1123,北区,神戸市北区ひよどり台3丁目3番,34.697865,135.124949,学校・園・児童館,対応不可
80,藍那小学校,651-1104,北区,神戸市北区山田町藍那字蛇谷1-10,34.735354,135.113317,学校・園・児童館,対応不可
81,道場小学校,651-1502,北区,神戸市北区道場町塩田1460号,34.869767,135.232453,学校・園・児童館,対応不可
82,八多小学校,651-1343,北区,神戸市北区八多町附物876,34.822619,135.195529,学校・園・児童館,対応不可
83,大沢小学校,651-1524,北区,神戸市北区大沢町中大沢976,34.855129,135.165376,学校・園・児童館,対応不可
84,長尾小学校,651-1515,北区,神戸市北区上津台3丁目4番1号,34.865777,135.194893,学校・園・児童館,対応不可
85,好徳小学校,651-1623,北区,神戸市北区淡河町野瀬487番地,34.822313,135.149978,学校・園・児童館,対応不可
86,淡河小学校,651-1615,北区,神戸市北区淡河町萩原524番地,34.816059,135.102577,学校・園・児童館,対応不可
87,イオン株式会社 ジャスコつくしが丘店,651-1212,北区,神戸市北区筑紫が丘3-2-10,34.746256,135.164124,商業施設,対応不可
88,グループホーム田園,651-1114,北区,神戸市北区鈴蘭台西町1-16-15,34.726625,135.142587,福祉施設,対応不可
89,社団法人神戸乗馬倶楽部,651-1102,北区,神戸市北区山田町下谷上字中一里山14-1,34.716089,135.115833,体育施設・スポーツクラブ,対応不可
90,イオン株式会社 神戸北ショッピングセンター,651-1515,北区,神戸市北区上津台8-1-1,34.860807,135.194413,商業施設,対応不可
91,シルバーステイあじさい,651-1221,北区,神戸市北区緑町8丁目12番1号,34.751777,135.155403,福祉施設,対応不可
92,三井住友銀行鈴蘭台支店,651-1111,北区,北区鈴蘭台北町1丁目7?17,34.723901,135.146089,商業施設,対応不可
93,三井住友銀行北鈴蘭台出張所,651-1142,北区,神戸市北区甲栄台1丁目1-5,34.739824,135.152062,商業施設,対応不可
94,三井住友銀行藤原台支店,651-1313,北区,神戸市北区有野中町1丁目12-7,34.821644,135.222963,商業施設,対応不可
95,天恵興業(株) 月光園 游月山荘,651-1401,北区,神戸市北区有馬町318番地,34.794965,135.245291,宿泊施設,24時間利用可
96,天恵興業(株) 月光園 鴻朧館,651-1401,北区,神戸市北区有馬町318番地,34.794782,135.246052,宿泊施設,24時間利用可
97,学校法人神戸弘陵学園,651-1101,北区,神戸市北区山田町小部妙賀山10-4,34.735963,135.165732,学校・園・児童館,対応不可
98,社会福祉法人 鈴蘭台荘,651-1112,北区,神戸市北区鈴蘭台東町2-4-6,34.719923,135.147449,福祉施設,対応不可
99,株式会社チュウブ 北神戸ゴルフ場,651-1511,北区,神戸市北区長尾町宅原大味谷1706番地,34.854743,135.200141,体育施設・スポーツクラブ,対応不可
100,キリンビール工場,651-1516,北区,神戸市北区赤松台2丁目1番1号,34.878509,135.17909,会社・事業所,対応不可
101,北六甲カントリー倶楽部 東コース,651-1522,北区,神戸市北区大沢町上大沢1982,34.836086,135.168696,体育施設・スポーツクラブ,対応不可
102,北六甲カントリー倶楽部 西コース,651-1522,北区,神戸市北区大沢町上大沢1982,34.836751,135.166443,体育施設・スポーツクラブ,対応不可
103,青い空の郷,651-1512,北区,神戸市北区長尾町上津4663番地の3,34.888401,135.167311,福祉施設,対応不可
104,有馬高原病院,651-1512,北区,神戸市北区長尾町上津4663番地の3,34.888846,135.166693,医療関連施設,対応不可
105,神戸親和女子大学,651-1111,北区,神戸市北区鈴蘭台北町7丁目13番1号,34.727757,135.154948,学校・園・児童館,対応不可
106,介護老人保健施設うらら,651-1603,北区,神戸市北区淡河町淡河字長松寺574,34.812482,135.10049,福祉施設,24時間利用可
107,株式会社フォーユウ・サプライ(リバティベル六甲),651-1101,北区,神戸市北区山田町小部字向井谷1-1,34.730531,135.152749,福祉施設,対応不可
109,ソーシャルコート神戸北,651-1211,北区,神戸市北区小倉台1丁目16-5,34.754986,135.163734,福祉施設,対応不可
110,兵庫開発株式会社有馬ロイヤルゴルフクラブ,651-1616,北区,神戸市北区淡河町北畑571番地,34.831654,135.12905,体育施設・スポーツクラブ,対応不可
111,神港学園神港高校 大池合宿所,651-1242,北区,神戸市北区山田町上谷上字堺山15-10,34.770934,135.201364,学校・園・児童館,対応不可
112,社会福祉法人翠福祉会 みどり保育園,651-1233,北区,神戸市北区日の峰1丁目20-1,34.759463,135.147254,学校・園・児童館,対応不可
113,(財)こうべ市民福祉振興協会 総合センター,651-1102,北区,神戸市北区山田町下谷上字中一里山14-1しあわせの村内,34.707678,135.115636,宿泊施設,対応不可
114,(財)こうべ市民福祉振興協会 たんぽぽの家,651-1102,北区,神戸市北区山田町下谷上字中一里山14-2しあわせの村内,34.706463,135.113262,公園・文教施設,対応不可
115,(財)こうべ市民福祉振興協会 保養センターひよどり,651-1102,北区,神戸市北区山田町下谷上字中一里山14-3しあわせの村内,34.704403,135.114886,宿泊施設,対応不可
116,(財)こうべ市民福祉振興協会 野外活動あおぞら,651-1102,北区,神戸市北区山田町下谷上字中一里山14-4しあわせの村内,34.708801,135.11195,公園・文教施設,対応不可
117,新鉄デイサービスセンター,651-1113,北区,神戸市北区鈴蘭台南町6丁目1番1号,34.721848,135.145868,福祉施設,対応不可
118,株式会社DNP住空間マテリアル,651-1502,北区,神戸市北区道場町塩田2446-3,34.874102,135.241137,会社・事業所,対応不可
119,(財)こうべ市民福祉振興協会 あおぞらオートキャンプ場管理棟受付,651-1102,北区,神戸市北区山田町下谷上字中一里山14-4しあわせの村内,34.712489,135.111418,公園・文教施設,対応不可
120,カルム箕谷・なごみ介護センター,651-1243,北区,神戸市北区山田町下谷上字かんじゃ7-3,34.761892,135.153956,福祉施設,対応不可
121,神戸社会保険介護老人保健施設,651-1145,北区,神戸市北区惣山町2丁目1-9,34.737302,135.154411,福祉施設,対応不可
122,兵庫県立鈴蘭台高等学校,651-1102,北区,神戸市北区山田町下谷上字中一里山9-107,34.719367,135.153484,学校・園・児童館,対応不可
125,みなと銀行 西鈴蘭台支店,651-1131,北区,神戸市北区北五葉1-1-17,34.725645,135.134748,商業施設,対応不可
126,みなと銀行 藤原台支店,651-1302,北区,神戸市北区藤原台中町1-2-2,34.821245,135.220954,商業施設,対応不可
127,神戸電鉄(株)西鈴蘭台駅,651-1131,北区,神戸市北区北五葉1-1-1,34.725814,135.13434,公共交通機関,対応不可
128,神戸電鉄(株)北鈴蘭台駅,651-1142,北区,神戸市北区甲栄台4-1-3,34.739491,135.152156,公共交通機関,対応不可
129,神戸電鉄(株)岡場駅,651-1302,北区,神戸市北区藤原台中町1-1-3,34.821746,135.222391,公共交通機関,対応不可
130,神戸電鉄(株)有馬温泉駅,651-1401,北区,神戸市北区有馬町字ウツギ谷266-2,34.799389,135.245738,公共交通機関,対応不可
131,神戸市立農村環境改善センター,651-1502,北区,神戸市北区道場町塩田1454-2,34.86935,135.23108,官公庁,対応不可
132,神戸信用金庫 西鈴蘭台支店,651-1132,北区,神戸市北区南五葉2-1-35,34.725376,135.133125,商業施設,対応不可
133,神戸三田プレミアムアウトレット,651-1515,北区,神戸市北区上津台7-3,34.860083,135.192104,商業施設,対応不可
134,神戸市立森林植物園,651-1242,北区,神戸市北区山田町上谷上字長尾1-2,34.740671,135.178156,公園・文教施設,対応不可
135,川崎重工業健康保険組合 泉郷荘,651-1401,北区,神戸市北区有馬町1257,34.798627,135.247622,宿泊施設,対応不可
136,株式会社メープルホテル&リゾート,651-1401,北区,神戸市北区有馬町406-3,34.796925,135.253292,宿泊施設,24時間利用可
137,兵庫農業協同組合 上淡河支店,651-1623,北区,神戸市北区淡河町野瀬715,34.817742,135.143879,商業施設,対応不可
138,兵庫農業協同組合 淡河支店,651-1603,北区,神戸市北区淡河町淡河字久保垣748-1,34.813947,135.098534,商業施設,対応不可
139,兵庫農業協同組合 北神長尾支店,651-1511,北区,神戸市北区長尾町宅原2990,34.872229,135.207572,商業施設,対応不可
140,兵庫農業協同組合 大沢支店,651-1524,北区,神戸市北区大沢町中大沢字尾上1-2,34.85871,135.164627,商業施設,対応不可
141,兵庫農業協同組合 八多支店,651-1343,北区,神戸市北区八多町附物783-2,34.826615,135.1994,商業施設,対応不可
142,兵庫農業協同組合 道場支店,651-1502,北区,神戸市北区道場町塩田18-2,34.86806,135.232408,商業施設,対応不可
143,兵庫農業協同組合 唐櫃出張所,651-1331,北区,神戸市北区有野町唐櫃3150,34.786201,135.206944,商業施設,対応不可
144,兵庫農業協同組合 谷上支店,651-1245,北区,神戸市北区谷上東町7-3,34.763257,135.172888,商業施設,対応不可
145,兵庫農業協同組合 西鈴蘭台出張所,651-1132,北区,神戸市北区南五葉1-2-6,34.725283,135.134831,商業施設,対応不可
146,兵庫農業協同組合 農協市場館 道の駅淡河,651-1603,北区,神戸市北区淡河町淡河字弘法垣643-1,34.813337,135.097059,商業施設,対応不可
147,兵庫農業協同組合 神戸北営農総合センター,651-1344,北区,神戸市北区八多町屏風藤ヶ生1145,34.818989,135.175951,会社・事業所,対応不可
148,兵庫農業協同組合 山田支店,651-1253,北区,神戸市北区山田町中字長尾サ28-2,34.765315,135.130475,商業施設,対応不可
149,社会福祉法人 陽気会,651-1313,北区,神戸市北区有野中町2-5-19,34.825501,135.226417,福祉施設,対応不可
150,北神戸田園スポーツ公園 体育館事務所,651-1311,北区,神戸市北区有野町二郎,34.846314,135.222729,体育施設・スポーツクラブ,対応不可
151,北神戸田園スポーツ公園 野球場事務所,651-1311,北区,神戸市北区有野町二郎,34.845386,135.221361,体育施設・スポーツクラブ,対応不可
152,鹿の子台地域福祉センター,651-1513,北区,神戸市北区鹿の子台北町6丁目34-3,34.861899,135.218195,小集会場・公民館・地域福祉センター,対応不可
153,広陵地域福祉センター,651-1211,北区,神戸市北区小倉台2-15-3,34.751376,135.164021,小集会場・公民館・地域福祉センター,対応不可
154,播州信用金庫 谷上支店,651-1245,北区,神戸市北区谷上東町8-29,34.762942,135.173081,商業施設,対応不可
155,介護付有料老人ホーム ハーモニアス谷上,651-1244,北区,神戸市北区谷上南町15-10,34.763761,135.1806,福祉施設,対応不可
156,神戸市環境局北事業所,651-1243,北区,神戸市北区山田町下谷上字五郎本1-1,34.762234,135.158017,官公庁,対応不可
157,神戸市環境局妙賀山クリーンセンター,651-1101,北区,神戸市北区山田町小部字妙賀山1-1,34.73329,135.161909,官公庁,対応不可
158,御所坊,651-1401,北区,神戸市北区有馬町858番地,34.796669,135.247217,宿泊施設,対応不可
159,御所坊 (有馬玩具博物館),651-1401,北区,神戸市北区有馬町797,34.797083,135.247949,宿泊施設,対応不可
160,御所坊 (御所別墅),651-1401,北区,神戸市北区有馬町958,34.793712,135.245889,宿泊施設,対応不可
161,御所坊 (ホテル花小宿),651-1401,北区,神戸市北区有馬町1007,34.796242,135.247714,宿泊施設,対応不可
162,御幸荘花結び,651-1401,北区,神戸市北区有馬町351番地,34.796028,135.252669,宿泊施設,24時間利用可
163,陸楓閣,651-1401,北区,神戸市北区有馬町1537-2,34.798456,135.245132,宿泊施設,24時間利用可
164,橋乃家別館嵐翠,651-1401,北区,神戸市北区有馬町1684,34.793077,135.244383,宿泊施設,対応不可
165,龍泉閣,651-1401,北区,神戸市北区有馬町ウツギ谷1663,34.800368,135.243922,宿泊施設,対応不可
166,奥の坊,651-1401,北区,神戸市北区有馬町1206,34.797573,135.248662,宿泊施設,24時間利用可
167,円山壮 竹取亭,651-1401,北区,神戸市北区有馬町1364-1,34.795245,135.252421,宿泊施設,対応不可
168,円山壮 康貴,651-1401,北区,神戸市北区有馬町1401-1,34.797362,135.249105,宿泊施設,24時間利用可
169,角の坊旅館,651-1401,北区,神戸市北区有馬町878番地,34.795839,135.247119,宿泊施設,24時間利用可
170,上大坊,651-1401,北区,神戸市北区有馬町1175番,34.796666,135.248837,宿泊施設,24時間利用可
171,中の坊 瑞苑,651-1401,北区,神戸市北区有馬町808番,34.797595,135.247997,宿泊施設,24時間利用可
172,銀水荘別館 兆楽,651-1401,北区,神戸市北区有馬町1654番1号,34.802862,135.247047,宿泊施設,24時間利用可
173,古泉閣,651-1401,北区,神戸市北区有馬町1455番1号,34.799748,135.250798,宿泊施設,24時間利用可
174,兵庫県体育協会 天王ダムスポーツガーデン,651-1112,北区,神戸市北区鈴蘭台東町9丁目3-5,34.721056,135.157963,体育施設・スポーツクラブ,対応不可
175,北在宅福祉センター,651-1114,北区,神戸市北区鈴蘭台西町1丁目26-2,34.726572,135.145436,福祉施設,対応不可
176,財団法人日本老人福祉財団 神戸ゆうゆうの里,651-1133,北区,神戸市北区鳴子3丁目1-2,34.725536,135.124675,福祉施設,対応不可
177,神戸電鉄(株)北神急行電鉄(株) 谷上駅,651-1245,北区,神戸市北区谷上東町1番1号,34.761665,135.171191,公共交通機関,対応不可
178,大池地域福祉センター,651-1333,北区,神戸市北区東大池2丁目3番13号,34.780349,135.199793,小集会場・公民館・地域福祉センター,対応不可
180,有限会社 まんてん薬局,651-1221,北区,神戸市北区緑町7丁目1番19号,34.746313,135.152517,医療関連施設,対応不可
181,君影保育所,651-1100,北区,神戸市北区君影5丁目1番17号,34.718385,135.139555,学校・園・児童館,対応不可
182,ひよどり台保育所,651-1123,北区,神戸市北区ひよどり台2丁目1-4,34.698732,135.12066,学校・園・児童館,対応不可
183,桜の宮保育所,651-1142,北区,神戸市北区甲栄台2丁目4-1,34.740457,135.149643,学校・園・児童館,対応不可
185,からと保育所,651-1332,北区,神戸市北区唐櫃台2丁目38番5号,34.790064,135.214949,学校・園・児童館,対応不可
186,八多児童館,651-1343,北区,神戸市北区八多町附物393-1,34.821585,135.197354,学校・園・児童館,対応不可
188,谷上学童保育コーナー,651-1243,北区,神戸市北区山田町下谷上字中上16,34.763371,135.169731,学校・園・児童館,対応不可
189,神戸市立道場児童館,651-1505,北区,神戸市北区道場町日下部663-3,34.863092,135.228413,学校・園・児童館,対応不可
190,神戸市立北五葉児童館,651-1131,北区,神戸市北区北五葉1-7-24,34.727573,135.134632,学校・園・児童館,対応不可
191,神戸市立小部児童館,651-1111,北区,神戸市北区鈴蘭台北町7丁目11-40,34.728357,135.1576,学校・園・児童館,対応不可
192,神戸市立すずらんだい児童館,651-1114,北区,神戸市北区鈴蘭台西町1丁目22-1,34.72759,135.144145,学校・園・児童館,対応不可
193,神港園しあわせの家,651-1102,北区,神戸市北区山田町下谷上字中一里山14-1,34.704753,135.113093,福祉施設,対応不可
194,神戸市立鈴蘭台西町保育所,651-1114,北区,神戸市北区鈴蘭台西町3丁目6番20号,34.728791,135.140389,学校・園・児童館,対応不可
195,社会福祉法人みのり福祉会 有野台児童館,651-1321,北区,神戸市北区有野台6丁目22の1,34.811761,135.233192,学校・園・児童館,対応不可
196,神戸市立南五葉児童館,651-1132,北区,神戸市北区南五葉3-5-21,34.719645,135.133689,学校・園・児童館,対応不可
197,ひよどり台児童館,651-1123,北区,神戸市北区ひよどり台2丁目1-1,34.698408,135.120815,学校・園・児童館,対応不可
198,神戸市立西山児童館,651-1306,北区,神戸市北区菖蒲が丘1丁目14-3,34.839075,135.217596,学校・園・児童館,対応不可
199,株式会社 欽山,651-1401,北区,神戸市北区有馬町1302-4,34.799777,135.243793,宿泊施設,24時間利用可
200,桜ノ宮児童館,651-1142,北区,神戸市北区甲栄台2丁目4-1,34.740496,135.149393,学校・園・児童館,対応不可
201,かんぽの宿 有馬,651-1401,北区,神戸市北区有馬町1617の1,34.79397,135.248922,宿泊施設,24時間利用可
202,神戸市立有野児童館,651-1313,北区,神戸市北区有野中町2丁目20の19,34.826367,135.224437,学校・園・児童館,対応不可
203,広陵児童館,651-1212,北区,神戸市北区筑紫が丘2丁目22-11,34.747731,135.167376,学校・園・児童館,対応不可
204,阪神高速 藍那営業所,651-1104,北区,神戸市北区山田町藍那地先,34.730662,135.128051,会社・事業所,対応不可
205,神戸市建設局北建設事務所,651-1331,北区,神戸市北区有野町唐櫃3064,34.786682,135.207523,官公庁,対応不可
207,神戸市立有野幼稚園,651-1313,北区,神戸市北区有野中町1丁目7番8号,34.819779,135.222351,学校・園・児童館,対応不可
208,神戸市立すずかぜ幼稚園,651-1111,北区,神戸市北区鈴蘭台北町3丁目26-1,34.730069,135.148469,学校・園・児童館,対応不可
209,神戸市立道場幼稚園,651-1502,北区,神戸市北区道場町塩田1460,34.870494,135.232939,学校・園・児童館,対応不可
210,神戸市立長尾幼稚園,651-1511,北区,神戸市北区長尾町宅原130,34.872781,135.203766,学校・園・児童館,対応不可
211,神戸市淡河好徳幼稚園,651-1615,北区,神戸市北区淡河町萩原1087,34.816804,135.102795,学校・園・児童館,対応不可
212,神戸市からと幼稚園,651-1332,北区,神戸市北区唐櫃台2丁目38-10,34.790415,135.21484,学校・園・児童館,対応不可
213,神戸市山田幼稚園,651-1253,北区,神戸市北区山田町中長尾サ18,34.766048,135.131837,学校・園・児童館,対応不可
214,神戸市立やまびこ幼稚園,651-1204,北区,神戸市北区花山東町3番2,34.765461,135.187173,学校・園・児童館,対応不可
215,神戸市大沢幼稚園,651-1524,北区,神戸市北区大沢町中大沢976番,34.854829,135.165199,学校・園・児童館,対応不可
216,特定非営利活動法人 山田の里 自然学校,651-1264,北区,神戸市北区山田町衝原字道南13-1,34.768542,135.104118,公園・文教施設,対応不可
217,神付ふるさと村,651-1523,北区,神戸市北区大沢町神付1348-2,34.833707,135.186366,公園・文教施設,対応不可
218,桜の宮地域福祉センター,651-1142,北区,神戸市北区甲栄台2丁目2-20,34.742045,135.148991,小集会場・公民館・地域福祉センター,対応不可
219,南五葉地域福祉センター,651-1132,北区,神戸市北区南五葉5丁目1-1,34.722949,135.136633,小集会場・公民館・地域福祉センター,対応不可
220,神戸市立北神区民センター,651-1302,北区,神戸市北区藤原台中町1丁目3-1,34.82236,135.219493,集会場・ホール,対応不可
221,鈴蘭台地域福祉センター,651-1113,北区,神戸市北区鈴蘭台南町2丁目14-24,34.725185,135.140738,小集会場・公民館・地域福祉センター,対応不可
222,神戸市立八多幼稚園,651-1343,北区,神戸市北区八多町附物383-1,34.822263,135.196646,学校・園・児童館,対応不可
223,甲緑地域福祉センター,651-1221,北区,神戸市北区緑町2-7-28,34.750226,135.148064,小集会場・公民館・地域福祉センター,対応不可
224,小部東地域福祉センター,651-1112,北区,神戸市北区鈴蘭台東町6-2-6,34.722538,135.151848,小集会場・公民館・地域福祉センター,対応不可
225,神戸市建設局公園砂防部森林整備事務所,651-1102,北区,神戸市北区山田町下谷上字中一里山4-1,34.72059,135.172973,官公庁,対応不可
226,生活共同組合コープこうべ コープ藤原台,651-1302,北区,神戸市北区藤原台中町1丁目2-2,34.821575,135.221037,商業施設,対応不可
227,生活共同組合コープこうべ コープ鈴蘭台東,651-1111,北区,神戸市北区鈴蘭台北町1丁目12番5号,34.72604,135.146131,商業施設,対応不可
228,生活共同組合コープこうべ コープ北鈴蘭台,651-1142,北区,神戸市北区甲栄台4丁目2番24号,34.739488,135.151174,商業施設,対応不可
229,生活共同組合コープこうべ コープデイズ神戸北町,651-1233,北区,神戸市北区日の峰2丁目7,34.755817,135.143683,商業施設,対応不可
230,小部地域福祉センター,651-1111,北区,神戸市北区鈴蘭台北町4-9-9,34.72789,135.149134,小集会場・公民館・地域福祉センター,対応不可
231,泉台地域福祉センター,651-1141,北区,神戸市北区泉台3丁目13-1,34.741576,135.141043,小集会場・公民館・地域福祉センター,対応不可
232,藍那小河地域福祉センター,651-1104,北区,神戸市北区山田町藍那下ノ町77-8,34.734595,135.113137,小集会場・公民館・地域福祉センター,対応不可
233,株式会社 ヒョウ工務店,651-1333,北区,神戸市北区東大池2丁目24-11,34.780429,135.201296,会社・事業所,対応不可
234,六甲山トンネル料金所事務所,651-1331,北区,神戸市北区有野町唐櫃字六甲山4512-7,34.769734,135.21473,会社・事業所,対応不可
235,神戸市道路公社 大沢料金所,651-1522,北区,神戸市北区大沢町上大沢字細池2147-15,34.852346,135.191964,会社・事業所,対応不可
236,神戸市道路公社 柳谷料金所,651-1312,北区,神戸市北区有野町有野字池ノ谷3767-3,34.80606,135.202534,会社・事業所,対応不可
237,神戸市道路公社 有野料金所,651-1312,北区,神戸市北区有野町有野字池ノ谷3764,34.805175,135.201311,会社・事業所,対応不可
238,ザ グランリゾートプリンセス有馬,651-1401,北区,神戸市北区有馬町1338,34.794937,135.252119,宿泊施設,対応不可
239,有馬御苑,651-1401,北区,神戸市北区有馬町1296,34.798052,135.246869,宿泊施設,対応不可
240,有馬温泉ソサエティ,651-1401,北区,神戸市北区有馬町416,34.796442,135.253628,宿泊施設,対応不可
241,ダイヤモンド有馬温泉ソサエティ,651-1401,北区,神戸市北区有馬町423,34.796823,135.254368,宿泊施設,対応不可
242,有馬保養所 瑞宝園,651-1401,北区,神戸市北区有馬町1751,34.796154,135.25438,宿泊施設,対応不可
243,神戸市立神戸セミナーハウス,651-1503,北区,神戸市北区道場町生野318-2,34.851334,135.243846,宿泊施設,対応不可
244,八多地域福祉センター,651-1343,北区,神戸市北区八多町附物393-1,34.821707,135.197381,小集会場・公民館・地域福祉センター,対応不可
245,北五葉地域福祉センター,651-1131,北区,神戸市北区北五葉3丁目7番1号,34.730405,135.136739,小集会場・公民館・地域福祉センター,対応不可
246,大沢地域福祉センター,651-1524,北区,神戸市北区大沢町中大沢字泓996-1,34.854479,135.166602,小集会場・公民館・地域福祉センター,対応不可
247,有野台地域福祉センター,651-1321,北区,神戸市北区有野台2丁目1番,34.811573,135.228137,小集会場・公民館・地域福祉センター,対応不可
248,有野地域福祉センター,651-1313,北区,神戸市北区有野中町2丁目20-19,34.826282,135.224687,小集会場・公民館・地域福祉センター,対応不可
249,君影地域福祉センター,651-1122,北区,神戸市北区君影町1丁目2-10,34.715372,135.135985,小集会場・公民館・地域福祉センター,対応不可
250,筑紫が丘地域福祉センター,651-1212,北区,神戸市北区筑紫が丘3-2-9,34.746075,135.163412,小集会場・公民館・地域福祉センター,対応不可
251,谷上地域福祉センター,651-1100,北区,神戸市北区谷上西町7-3,34.761334,135.169083,小集会場・公民館・地域福祉センター,対応不可
252,星和台鳴子地域福祉センター,651-1133,北区,神戸市北区鳴子2丁目11-1,34.721713,135.126311,小集会場・公民館・地域福祉センター,対応不可
253,山田地域福祉センター,651-1254,北区,神戸市北区山田町福地字ガケノ上18-3,34.767302,135.131049,小集会場・公民館・地域福祉センター,対応不可
254,唐櫃地域福祉センター,651-1332,北区,神戸市北区唐櫃台3丁目27-1,34.788707,135.214714,小集会場・公民館・地域福祉センター,対応不可
255,淡河地域福祉センター,651-1615,北区,神戸市北区淡河町萩原桶垣内323,34.812667,135.104353,小集会場・公民館・地域福祉センター,対応不可
256,長尾地域福祉センター,651-1512,北区,神戸市北区長尾町上津194-1,34.872311,135.20358,小集会場・公民館・地域福祉センター,対応不可
257,ひよどり台地域福祉センター,651-1123,北区,神戸市北区ひよどり台3-8,34.698731,135.121919,小集会場・公民館・地域福祉センター,対応不可
258,西山地域福祉センター,651-1306,北区,神戸市北区菖蒲が丘1丁目14-3,34.839228,135.21752,小集会場・公民館・地域福祉センター,対応不可
259,有野台第二地域福祉センター,651-1321,北区,神戸市北区有野台6丁目22-1,34.811806,135.233032,小集会場・公民館・地域福祉センター,対応不可
260,箕谷地域福祉センター,651-1221,北区,神戸市北区緑町4丁目6-3,34.752339,135.150993,小集会場・公民館・地域福祉センター,対応不可
261,花山地域福祉センター,651-1204,北区,神戸市北区花山東町3-3,34.764793,135.187529,小集会場・公民館・地域福祉センター,対応不可
262,藤原台地域福祉センター,651-1302,北区,神戸市北区藤原台中町7-14-16,34.813791,135.21528,小集会場・公民館・地域福祉センター,対応不可
263,市立鈴蘭台南町保育所,651-1113,北区,神戸市北区鈴蘭台南町4丁目2番28号,34.723291,135.137592,学校・園・児童館,対応不可
264,道場地域福祉センター,651-1502,北区,神戸市北区道場町塩田字西河原1439-3,34.867296,135.230928,小集会場・公民館・地域福祉センター,対応不可
265,上淡河地域福祉センター,651-1623,北区,神戸市北区淡河町野瀬字新田459-2,34.822128,135.151222,小集会場・公民館・地域福祉センター,対応不可
266,大原・桂木地域福祉センター,651-1222,北区,神戸市北区大原3丁目21番,34.749493,135.14033,小集会場・公民館・地域福祉センター,対応不可
267,桂木児童館,651-1223,北区,神戸市北区桂木1丁目2-4,34.748451,135.145759,学校・園・児童館,対応不可
268,ひよどり台交流プラザ,651-1123,北区,神戸市北区ひよどり台3-4-4,34.698071,135.123655,小集会場・公民館・地域福祉センター,対応不可
269,コープこうべ コープ有野,651-1321,北区,神戸市北区有野台2丁目1-6,34.81298,135.228217,商業施設,対応不可
270,コープこうべ コープからと,651-1332,北区,神戸市北区唐櫃台2丁目23番8号,34.791069,135.212233,商業施設,対応不可
271,コープこうべ コープ西鈴蘭台,651-1132,北区,神戸市北区南五葉1丁目1-3,34.723004,135.134282,商業施設,対応不可
272,兵庫県神戸北警察署,651-1142,北区,神戸市北区甲栄台3丁目6-1,34.740559,135.147969,官公庁,24時間利用可
273,兵庫県有馬警察署,651-1301,北区,神戸市北区藤原台北町6丁目18番1号,34.833367,135.224631,官公庁,24時間利用可
274,(株)アイオー精密 神戸工場,651-1516,北区,神戸市北区赤松台2丁目3-1,34.878952,135.175138,会社・事業所,対応不可
275,神戸市立ひよどり台ホーム,651-1124,北区,神戸市北区ひよどり北町3丁目2番地,34.709246,135.120324,福祉施設,24時間利用可
276,大原山公園テニスコート・駐車場,651-1222,北区,神戸市北区大原2丁目31,34.745161,135.137178,体育施設・スポーツクラブ,対応不可
277,掖谷公園テニスコート・駐車場,651-1514,北区,神戸市北区鹿の子台南町5-2,34.857645,135.213179,体育施設・スポーツクラブ,対応不可
278,株式会社 北神社 花浄院,651-1101,北区,神戸市北区山田町小部6番3,34.736689,135.158914,商業施設,対応不可
279,セブンイレブン 神戸淡河町店,651-1603,北区,神戸市北区淡河町淡河648-2,34.813386,135.096578,商業施設,24時間利用可
280,宗教法人法性寺 道場保育園,651-1501,北区,神戸市北区道場町道場106,34.864324,135.230519,学校・園・児童館,対応不可
281,東急ハーヴェストクラブ有馬六彩,651-1401,北区,神戸市北区有馬町341-1,34.794503,135.249893,宿泊施設,24時間利用可
282,エクシブ有馬離宮,651-1401,北区,神戸市北区有馬町1661-11,34.800279,135.242684,宿泊施設,24時間利用可
1,神戸高速鉄道(株) 高速長田駅,653-0016,長田区,神戸市長田区北町1-2,34.667265,135.15178,公共交通機関,対応不可
2,釜田歯科医院,653-0843,長田区,神戸市長田区御屋敷通2丁目3-1,34.661285,135.144407,医療関連施設,対応不可
3,兵庫県立文化体育館,653-0837,長田区,神戸市長田区蓮池町1-1,34.663514,135.144154,体育施設・スポーツクラブ,対応不可
4,神戸市営地下鉄 新長田駅(西神山手線),653-0841,長田区,神戸市長田区松野通1丁目,34.658012,135.14537,公共交通機関,対応不可
5,神戸市営地下鉄 新長田駅(海岸線),653-0038,長田区,神戸市長田区若松町4丁目,34.656385,135.145348,公共交通機関,対応不可
6,神戸市営地下鉄 長田駅,653-0004,長田区,神戸市長田区四番町7丁目,34.668777,135.15183,公共交通機関,対応不可
7,新長田まちづくり(株) アスタくにづか3番館,653-0041,長田区,神戸市長田区久保町6丁目1-1-401,34.653407,135.147194,商業施設,24時間利用可
8,新長田まちづくり(株) アスタプラザウエスト,653-0041,長田区,神戸市長田区大橋町6丁目1-1,34.654824,135.144743,商業施設,24時間利用可
9,長田区役所,653-0016,長田区,神戸市長田区北町3丁目4番地の3,34.665803,135.150959,官公庁,24時間利用可
10,神戸常盤短期大学,653-0838,長田区,神戸市長田区大谷町2丁目6番2号,34.665579,135.141468,学校・園・児童館,対応不可
12,兵庫県立長田高等学校,653-0821,長田区,神戸市長田区池田谷町2丁目5,34.670459,135.144045,学校・園・児童館,対応不可
13,神戸市立 新長田図書館,653-0835,長田区,神戸市長田区細田町7丁目1-27,34.659888,135.144706,公園・文教施設,対応不可
14,神戸信用金庫 西神戸支店,653-0042,長田区,神戸市長田区二葉町4丁目7-11,34.653568,135.148441,商業施設,対応不可
15,医療法事社団 新長田眼科,653-0036,長田区,神戸市長田区腕塚町4丁目2番11号,34.655462,135.147625,医療関連施設,対応不可
16,駒ケ林中学校,653-0038,長田区,神戸市長田区若松町7-1-23,34.654982,135.143573,学校・園・児童館,対応不可
17,高取台中学校,653-0856,長田区,神戸市長田区高取山町1-1-1,34.671515,135.137442,学校・園・児童館,対応不可
18,長田中学校,653-0025,長田区,神戸市長田区真野町8-1,34.661463,135.153485,学校・園・児童館,対応不可
19,雲雀丘中学校,653-0879,長田区,神戸市長田区雲雀ケ丘1-1-1,34.691545,135.134305,学校・園・児童館,対応不可
20,丸山中学校,653-0806,長田区,神戸市長田区大丸町2-17-1,34.677946,135.148731,学校・園・児童館,対応不可
21,西代中学校,653-0827,長田区,神戸市長田区上池田2-4-1,34.668265,135.139763,学校・園・児童館,対応不可
22,育英高等学校,653-0855,長田区,神戸市長田区長尾町2-1-15,34.668171,135.134909,学校・園・児童館,対応不可
23,神戸市立長田公民館,653-0004,長田区,神戸市長田区四番町4丁目51,34.669653,135.15462,官公庁,対応不可
24,こうべ市歯科センター,653-0042,長田区,神戸市長田区二葉町5丁目1-1,34.652742,135.147709,医療関連施設,対応不可
25,新長田勤労市民センター,653-0038,長田区,神戸市長田区若松町5丁目5-1,34.65599,135.144668,集会場・ホール,対応不可
26,ピフレホール,653-0038,長田区,神戸市長田区若松町4丁目2-15,34.656876,135.145965,集会場・ホール,対応不可
27,介護老人保健施設ヴィラ光陽,653-0872,長田区,神戸市長田区大日丘町2丁目7,34.690028,135.137562,福祉施設,24時間利用可
28,神戸市防災コミュニティーセンター,653-0016,長田区,神戸市長田区北町3丁目4-8,34.665948,135.150546,官公庁,対応不可
29,兵庫県立長田商業高等学校,653-0821,長田区,神戸市長田区池田谷町2丁目5,34.670455,135.144041,学校・園・児童館,対応不可
30,近畿産業信用組合長田支店,653-0842,長田区,神戸市長田区水笠通4丁目4-25,34.659553,135.141913,商業施設,対応不可
31,プレノ長田管理組合,653-0811,長田区,神戸市長田区大塚町1丁目8-11,34.670307,135.149191,商業施設,対応不可
32,神戸市営地下鉄 苅藻駅(海岸線),653-0024,長田区,神戸市長田区浜添通5丁目,34.653617,135.156483,公共交通機関,対応不可
33,神戸市営地下鉄 駒ケ林駅(海岸線),653-0035,長田区,神戸市長田区庄田町4丁目,34.651907,135.149811,公共交通機関,対応不可
34,三ツ星ベルト(株)神戸事業所,653-0024,長田区,神戸市長田区浜添通4丁目1-21,34.654978,135.156522,会社・事業所,24時間利用可
35,神戸村野工業高等学校,653-0003,長田区,神戸市長田区五番町8丁目5,34.667347,135.150047,学校・園・児童館,対応不可
36,ミヨシ油脂(株)神戸工場,653-0032,長田区,神戸市長田区苅藻通7-1-48,34.651685,135.156406,会社・事業所,24時間利用可
37,山陽電気鉄道 西代駅,653-0843,長田区,神戸市長田区御屋敷通2丁目6-1,34.662548,135.144329,公共交通機関,対応不可
38,愛の園あんしんすこやかセンター,653-0811,長田区,神戸市長田区大塚町5丁目1-7,34.673125,135.147226,福祉施設,対応不可
39,室内小学校,653-0803,長田区,神戸市長田区前原町1丁目17-1,34.673351,135.154165,学校・園・児童館,対応不可
40,名倉小学校,653-0801,長田区,神戸市長田区房王寺町4丁目7-15,34.680112,135.148211,学校・園・児童館,対応不可
41,雲雀ヶ丘小学校,653-0879,長田区,神戸市長田区雲雀ヶ丘1丁目1-2,34.690925,135.135469,学校・園・児童館,対応不可
42,丸山小学校,653-0874,長田区,神戸市長田区西丸山町3丁目2-1,34.686551,135.137599,学校・園・児童館,対応不可
43,宮川小学校,653-0812,長田区,神戸市長田区長田町4丁目1-1,34.672013,135.147144,学校・園・児童館,対応不可
44,池田小学校,653-0824,長田区,神戸市長田区池田上町19,34.6681,135.145577,学校・園・児童館,対応不可
45,蓮池小学校,653-0838,長田区,神戸市長田区大谷町1丁目1-10,34.662736,135.143379,学校・園・児童館,対応不可
46,長田小学校,653-0862,長田区,神戸市長田区西山町2丁目4-1,34.672298,135.143529,学校・園・児童館,対応不可
47,五位ノ池小学校,653-0851,長田区,神戸市長田区五位ノ池町2丁目3-1,34.666189,135.136622,学校・園・児童館,対応不可
48,御蔵小学校,653-0013,長田区,神戸市長田区一番町4丁目1,34.666384,135.154987,学校・園・児童館,対応不可
49,真野小学校,653-0032,長田区,神戸市長田区苅藻通3丁目4-32,34.656902,135.15422,学校・園・児童館,対応不可
50,長田南小学校,653-0836,長田区,神戸市長田区神楽町1丁目3-1,34.66197,135.150151,学校・園・児童館,対応不可
51,真陽小学校,653-0042,長田区,神戸市長田区二葉町1丁目5-5,34.655576,135.151862,学校・園・児童館,対応不可
52,駒ケ林小学校,653-0051,長田区,神戸市長田区野田町6丁目1-16,34.650057,135.141541,学校・園・児童館,対応不可
53,昭和シェル石油(株)神戸事業所,653-0055,長田区,神戸市長田区浪松町6丁目1-17,34.646394,135.138469,会社・事業所,対応不可
55,(株)三井住友銀行長田支店,653-0004,長田区,神戸市長田区四番町8丁目6-1,34.66786,135.150704,商業施設,対応不可
56,丸正建設株式会社,653-0801,長田区,神戸市長田区房王寺町7丁目2-7,34.680274,135.150541,会社・事業所,対応不可
57,ゆうとぴ庵西神戸,653-0855,長田区,神戸市長田区長尾町2丁目13-14,34.669238,135.133812,会社・事業所,対応不可
58,建設局中央水環境センター,653-0044,長田区,神戸市長田区南駒栄町1-44,34.647695,135.151464,官公庁,対応不可
59,阪本歯科医院,653-0805,長田区,神戸市長田区片山町5-11-24-105,34.677845,135.146774,医療関連施設,対応不可
60,神戸野田高等学校,653-0052,長田区,神戸市長田区海運町6-1-7,34.649376,135.141229,学校・園・児童館,対応不可
61,神戸信用金庫 長田支店,653-0812,長田区,神戸市長田区長田町2丁目1-6,34.670152,135.148043,商業施設,対応不可
62,長田庄山地域福祉センター,653-0853,長田区,神戸市長田区庄山町2丁目1-6,34.662402,135.136004,小集会場・公民館・地域福祉センター,対応不可
63,コナミスポーツクラブ新長田,653-0038,長田区,神戸市長田区若松町5丁目2-1,34.655566,135.145319,体育施設・スポーツクラブ,対応不可
64,環境局 長田事業所,653-0025,長田区,神戸市長田区真野町9-24,34.660832,135.151938,官公庁,対応不可
65,苅藻島クリーンセンター,653-0033,長田区,神戸市長田区苅藻島町3丁目12-28,34.648428,135.160859,官公庁,対応不可
66,兵庫韓国文化教育院 在日本大韓民国民団,653-0031,長田区,神戸市長田区西尻池町2丁目4-30,34.658504,135.150697,会社・事業所,対応不可
67,ジョイプラザ管理事務所,653-0038,長田区,神戸市長田区若松町5丁目5-1,34.656508,135.144649,商業施設,対応不可
68,高取台サンハイツ,653-0827,長田区,神戸市長田区上池田3丁目17-8,34.670193,135.138442,集合住宅,対応不可
69,おおにし歯科,653-0024,長田区,神戸市長田区浜添通3丁目4-10,34.656614,135.155645,医療関連施設,対応不可
70,ディサービスセンターふれんど神戸,653-0801,長田区,神戸市長田区房王寺町7丁目1-7,34.67998,135.150981,福祉施設,対応不可
72,神戸市立本庄保育所,653-0053,長田区,神戸市長田区本庄町6丁目6-3,34.648995,135.139945,学校・園・児童館,対応不可
73,神戸市立長田保育所,653-0811,長田区,神戸市長田区大塚町1丁目1-31,34.670483,135.150865,学校・園・児童館,対応不可
74,神戸市立浪松保育所,653-0055,長田区,神戸市長田区浪松町2丁目1-7,34.650871,135.13528,学校・園・児童館,対応不可
75,神戸市立しりいけ保育所,653-0022,長田区,神戸市長田区東尻池町6丁目3-37,34.657016,135.157571,学校・園・児童館,対応不可
77,神戸市立房王寺保育所,653-0801,長田区,神戸市長田区房王寺町5丁目1-5-100,34.680125,135.148872,学校・園・児童館,対応不可
78,神戸市立五位の池児童館,653-0855,長田区,神戸市長田区長尾町1丁目4-30,34.666467,135.136337,学校・園・児童館,対応不可
79,神戸市立菅原保育所,653-0015,長田区,神戸市長田区菅原通1丁目72-1,34.666391,135.158208,学校・園・児童館,対応不可
80,神戸市立明泉寺保育所,653-0884,長田区,神戸市長田区明泉寺町1丁目6-8,34.679085,135.144265,学校・園・児童館,対応不可
82,神戸市立長田東保育所,653-0004,長田区,神戸市長田区四番町3丁目4-49,34.670737,135.155881,学校・園・児童館,対応不可
83,丸山地域福祉センター,653-0875,長田区,神戸市長田区丸山町2丁目-3-50,34.683015,135.140175,小集会場・公民館・地域福祉センター,対応不可
84,神戸市立細田児童館,653-0835,長田区,神戸市長田区細田町7丁目1-30,34.659887,135.144704,学校・園・児童館,対応不可
85,神戸市立駒栄保育所,653-0034,長田区,神戸市長田区駒栄町3丁目1-17,34.652501,135.150901,学校・園・児童館,対応不可
86,神戸市立長田児童館,653-0004,長田区,神戸市長田区四番町4丁目54,34.67,135.154042,学校・園・児童館,対応不可
87,神戸市立長楽児童館,653-0052,長田区,神戸市長田区海運町7丁目1-23,34.648652,135.142126,学校・園・児童館,対応不可
